[{"name":"Arapiraca, AL <br> GPON","latitude":"-9.754866","longitude":"-36.661471","tecnologia":"GPON","uf":"AL","cidade":"Arapiraca","color":"green"},{"name":"Trindade, GO <br> GPON","latitude":"-16.651708","longitude":"-49.492667","tecnologia":"GPON","uf":"GO","cidade":"Trindade","color":"green"},{"name":"Araxá, MG <br> GPON","latitude":"-19.590176","longitude":"-46.943804","tecnologia":"GPON","uf":"MG","cidade":"Araxá","color":"green"},{"name":"Itajubá, MG <br> GPON","latitude":"-22.422481","longitude":"-45.459818","tecnologia":"GPON","uf":"MG","cidade":"Itajubá","color":"green"},{"name":"Paraíba Do Sul, RJ <br> GPON","latitude":"-22.158462","longitude":"-43.304004","tecnologia":"GPON","uf":"RJ","cidade":"Paraíba Do Sul","color":"green"},{"name":"Ji-Paraná, RO <br> GPON","latitude":"-10.877741","longitude":"-61.932152","tecnologia":"GPON","uf":"RO","cidade":"Ji-Paraná","color":"green"},{"name":"Camaquã, RS <br> GPON","latitude":"-30.848897","longitude":"-51.80431","tecnologia":"GPON","uf":"RS","cidade":"Camaquã","color":"green"},{"name":"Dois Irmãos, RS <br> GPON","latitude":"-29.58356","longitude":"-51.089776","tecnologia":"GPON","uf":"RS","cidade":"Dois Irmãos","color":"green"},{"name":"Marau, RS <br> GPON","latitude":"-28.449754","longitude":"-52.198625","tecnologia":"GPON","uf":"RS","cidade":"Marau","color":"green"},{"name":"Vacaria, RS <br> GPON","latitude":"-28.507868","longitude":"-50.941791","tecnologia":"GPON","uf":"RS","cidade":"Vacaria","color":"green"},{"name":"Içara, SC <br> GPON","latitude":"-28.713206","longitude":"-49.308654","tecnologia":"GPON","uf":"SC","cidade":"Içara","color":"green"},{"name":"Agudos, SP <br> GPON","latitude":"-22.469433","longitude":"-48.98632","tecnologia":"GPON","uf":"SP","cidade":"Agudos","color":"green"},{"name":"Casa Branca, SP <br> GPON","latitude":"-21.77081","longitude":"-47.085245","tecnologia":"GPON","uf":"SP","cidade":"Casa Branca","color":"green"},{"name":"Ibaté, SP <br> GPON","latitude":"-21.958358","longitude":"-47.988211","tecnologia":"GPON","uf":"SP","cidade":"Ibaté","color":"green"},{"name":"Jaguariúna, SP <br> GPON","latitude":"-22.70374","longitude":"-46.985062","tecnologia":"GPON","uf":"SP","cidade":"Jaguariúna","color":"green"},{"name":"Piedade, SP <br> GPON","latitude":"-23.713941","longitude":"-47.425572","tecnologia":"GPON","uf":"SP","cidade":"Piedade","color":"green"},{"name":"Santa Cruz das Palmeiras, SP <br> GPON","latitude":"-21.823475","longitude":"-47.248023","tecnologia":"GPON","uf":"SP","cidade":"Santa Cruz das Palmeiras","color":"green"},{"name":"Tambaú, SP <br> GPON","latitude":"-21.70292","longitude":"-47.270344","tecnologia":"GPON","uf":"SP","cidade":"Tambaú","color":"green"},{"name":"Araguaína, TO <br> GPON","latitude":"-7.192375","longitude":"-48.204402","tecnologia":"GPON","uf":"TO","cidade":"Araguaína","color":"green"},{"name":"Gurupi, TO <br> GPON","latitude":"-11.72794","longitude":"-49.068046","tecnologia":"GPON","uf":"TO","cidade":"Gurupi","color":"green"}]
