[{"latitude":"-9.754866","name":"Arapiraca, AL <br> GPON","cidade":"Arapiraca","tecnologia":"GPON","longitude":"-36.661471","color":"green","uf":"AL"},{"latitude":"-16.651708","name":"Trindade, GO <br> GPON","cidade":"Trindade","tecnologia":"GPON","longitude":"-49.492667","color":"green","uf":"GO"},{"latitude":"-19.590176","name":"Araxá, MG <br> GPON","cidade":"Araxá","tecnologia":"GPON","longitude":"-46.943804","color":"green","uf":"MG"},{"latitude":"-22.422481","name":"Itajubá, MG <br> GPON","cidade":"Itajubá","tecnologia":"GPON","longitude":"-45.459818","color":"green","uf":"MG"},{"latitude":"-22.158462","name":"Paraíba Do Sul, RJ <br> GPON","cidade":"Paraíba Do Sul","tecnologia":"GPON","longitude":"-43.304004","color":"green","uf":"RJ"},{"latitude":"-10.877741","name":"Ji-Paraná, RO <br> GPON","cidade":"Ji-Paraná","tecnologia":"GPON","longitude":"-61.932152","color":"green","uf":"RO"},{"latitude":"-30.848897","name":"Camaquã, RS <br> GPON","cidade":"Camaquã","tecnologia":"GPON","longitude":"-51.80431","color":"green","uf":"RS"},{"latitude":"-29.58356","name":"Dois Irmãos, RS <br> GPON","cidade":"Dois Irmãos","tecnologia":"GPON","longitude":"-51.089776","color":"green","uf":"RS"},{"latitude":"-28.449754","name":"Marau, RS <br> GPON","cidade":"Marau","tecnologia":"GPON","longitude":"-52.198625","color":"green","uf":"RS"},{"latitude":"-28.507868","name":"Vacaria, RS <br> GPON","cidade":"Vacaria","tecnologia":"GPON","longitude":"-50.941791","color":"green","uf":"RS"},{"latitude":"-28.713206","name":"Içara, SC <br> GPON","cidade":"Içara","tecnologia":"GPON","longitude":"-49.308654","color":"green","uf":"SC"},{"latitude":"-22.469433","name":"Agudos, SP <br> GPON","cidade":"Agudos","tecnologia":"GPON","longitude":"-48.98632","color":"green","uf":"SP"},{"latitude":"-21.77081","name":"Casa Branca, SP <br> GPON","cidade":"Casa Branca","tecnologia":"GPON","longitude":"-47.085245","color":"green","uf":"SP"},{"latitude":"-21.958358","name":"Ibaté, SP <br> GPON","cidade":"Ibaté","tecnologia":"GPON","longitude":"-47.988211","color":"green","uf":"SP"},{"latitude":"-22.70374","name":"Jaguariúna, SP <br> GPON","cidade":"Jaguariúna","tecnologia":"GPON","longitude":"-46.985062","color":"green","uf":"SP"},{"latitude":"-23.713941","name":"Piedade, SP <br> GPON","cidade":"Piedade","tecnologia":"GPON","longitude":"-47.425572","color":"green","uf":"SP"},{"latitude":"-21.823475","name":"Santa Cruz das Palmeiras, SP <br> GPON","cidade":"Santa Cruz das Palmeiras","tecnologia":"GPON","longitude":"-47.248023","color":"green","uf":"SP"},{"latitude":"-21.70292","name":"Tambaú, SP <br> GPON","cidade":"Tambaú","tecnologia":"GPON","longitude":"-47.270344","color":"green","uf":"SP"},{"latitude":"-7.192375","name":"Araguaína, TO <br> GPON","cidade":"Araguaína","tecnologia":"GPON","longitude":"-48.204402","color":"green","uf":"TO"},{"latitude":"-11.72794","name":"Gurupi, TO <br> GPON","cidade":"Gurupi","tecnologia":"GPON","longitude":"-49.068046","color":"green","uf":"TO"}]
