[{"tecnologia":"GPON","cidade":"Arapiraca","uf":"AL","longitude":"-36.661471","name":"Arapiraca, AL <br> GPON","latitude":"-9.754866","color":"green"},{"tecnologia":"GPON","cidade":"Trindade","uf":"GO","longitude":"-49.492667","name":"Trindade, GO <br> GPON","latitude":"-16.651708","color":"green"},{"tecnologia":"GPON","cidade":"Araxá","uf":"MG","longitude":"-46.943804","name":"Araxá, MG <br> GPON","latitude":"-19.590176","color":"green"},{"tecnologia":"GPON","cidade":"Itajubá","uf":"MG","longitude":"-45.459818","name":"Itajubá, MG <br> GPON","latitude":"-22.422481","color":"green"},{"tecnologia":"GPON","cidade":"Paraíba Do Sul","uf":"RJ","longitude":"-43.304004","name":"Paraíba Do Sul, RJ <br> GPON","latitude":"-22.158462","color":"green"},{"tecnologia":"GPON","cidade":"Ji-Paraná","uf":"RO","longitude":"-61.932152","name":"Ji-Paraná, RO <br> GPON","latitude":"-10.877741","color":"green"},{"tecnologia":"GPON","cidade":"Camaquã","uf":"RS","longitude":"-51.80431","name":"Camaquã, RS <br> GPON","latitude":"-30.848897","color":"green"},{"tecnologia":"GPON","cidade":"Dois Irmãos","uf":"RS","longitude":"-51.089776","name":"Dois Irmãos, RS <br> GPON","latitude":"-29.58356","color":"green"},{"tecnologia":"GPON","cidade":"Marau","uf":"RS","longitude":"-52.198625","name":"Marau, RS <br> GPON","latitude":"-28.449754","color":"green"},{"tecnologia":"GPON","cidade":"Vacaria","uf":"RS","longitude":"-50.941791","name":"Vacaria, RS <br> GPON","latitude":"-28.507868","color":"green"},{"tecnologia":"GPON","cidade":"Içara","uf":"SC","longitude":"-49.308654","name":"Içara, SC <br> GPON","latitude":"-28.713206","color":"green"},{"tecnologia":"GPON","cidade":"Agudos","uf":"SP","longitude":"-48.98632","name":"Agudos, SP <br> GPON","latitude":"-22.469433","color":"green"},{"tecnologia":"GPON","cidade":"Casa Branca","uf":"SP","longitude":"-47.085245","name":"Casa Branca, SP <br> GPON","latitude":"-21.77081","color":"green"},{"tecnologia":"GPON","cidade":"Ibaté","uf":"SP","longitude":"-47.988211","name":"Ibaté, SP <br> GPON","latitude":"-21.958358","color":"green"},{"tecnologia":"GPON","cidade":"Jaguariúna","uf":"SP","longitude":"-46.985062","name":"Jaguariúna, SP <br> GPON","latitude":"-22.70374","color":"green"},{"tecnologia":"GPON","cidade":"Piedade","uf":"SP","longitude":"-47.425572","name":"Piedade, SP <br> GPON","latitude":"-23.713941","color":"green"},{"tecnologia":"GPON","cidade":"Santa Cruz das Palmeiras","uf":"SP","longitude":"-47.248023","name":"Santa Cruz das Palmeiras, SP <br> GPON","latitude":"-21.823475","color":"green"},{"tecnologia":"GPON","cidade":"Tambaú","uf":"SP","longitude":"-47.270344","name":"Tambaú, SP <br> GPON","latitude":"-21.70292","color":"green"},{"tecnologia":"GPON","cidade":"Araguaína","uf":"TO","longitude":"-48.204402","name":"Araguaína, TO <br> GPON","latitude":"-7.192375","color":"green"},{"tecnologia":"GPON","cidade":"Gurupi","uf":"TO","longitude":"-49.068046","name":"Gurupi, TO <br> GPON","latitude":"-11.72794","color":"green"}]
