[{"longitude":"-36.661471","color":"green","name":"Arapiraca, AL <br> GPON","tecnologia":"GPON","cidade":"Arapiraca","uf":"AL","latitude":"-9.754866"},{"longitude":"-49.492667","color":"green","name":"Trindade, GO <br> GPON","tecnologia":"GPON","cidade":"Trindade","uf":"GO","latitude":"-16.651708"},{"longitude":"-46.943804","color":"green","name":"Araxá, MG <br> GPON","tecnologia":"GPON","cidade":"Araxá","uf":"MG","latitude":"-19.590176"},{"longitude":"-45.459818","color":"green","name":"Itajubá, MG <br> GPON","tecnologia":"GPON","cidade":"Itajubá","uf":"MG","latitude":"-22.422481"},{"longitude":"-43.304004","color":"green","name":"Paraíba Do Sul, RJ <br> GPON","tecnologia":"GPON","cidade":"Paraíba Do Sul","uf":"RJ","latitude":"-22.158462"},{"longitude":"-61.932152","color":"green","name":"Ji-Paraná, RO <br> GPON","tecnologia":"GPON","cidade":"Ji-Paraná","uf":"RO","latitude":"-10.877741"},{"longitude":"-51.80431","color":"green","name":"Camaquã, RS <br> GPON","tecnologia":"GPON","cidade":"Camaquã","uf":"RS","latitude":"-30.848897"},{"longitude":"-51.089776","color":"green","name":"Dois Irmãos, RS <br> GPON","tecnologia":"GPON","cidade":"Dois Irmãos","uf":"RS","latitude":"-29.58356"},{"longitude":"-52.198625","color":"green","name":"Marau, RS <br> GPON","tecnologia":"GPON","cidade":"Marau","uf":"RS","latitude":"-28.449754"},{"longitude":"-50.941791","color":"green","name":"Vacaria, RS <br> GPON","tecnologia":"GPON","cidade":"Vacaria","uf":"RS","latitude":"-28.507868"},{"longitude":"-49.308654","color":"green","name":"Içara, SC <br> GPON","tecnologia":"GPON","cidade":"Içara","uf":"SC","latitude":"-28.713206"},{"longitude":"-48.98632","color":"green","name":"Agudos, SP <br> GPON","tecnologia":"GPON","cidade":"Agudos","uf":"SP","latitude":"-22.469433"},{"longitude":"-47.085245","color":"green","name":"Casa Branca, SP <br> GPON","tecnologia":"GPON","cidade":"Casa Branca","uf":"SP","latitude":"-21.77081"},{"longitude":"-47.988211","color":"green","name":"Ibaté, SP <br> GPON","tecnologia":"GPON","cidade":"Ibaté","uf":"SP","latitude":"-21.958358"},{"longitude":"-46.985062","color":"green","name":"Jaguariúna, SP <br> GPON","tecnologia":"GPON","cidade":"Jaguariúna","uf":"SP","latitude":"-22.70374"},{"longitude":"-47.425572","color":"green","name":"Piedade, SP <br> GPON","tecnologia":"GPON","cidade":"Piedade","uf":"SP","latitude":"-23.713941"},{"longitude":"-47.248023","color":"green","name":"Santa Cruz das Palmeiras, SP <br> GPON","tecnologia":"GPON","cidade":"Santa Cruz das Palmeiras","uf":"SP","latitude":"-21.823475"},{"longitude":"-47.270344","color":"green","name":"Tambaú, SP <br> GPON","tecnologia":"GPON","cidade":"Tambaú","uf":"SP","latitude":"-21.70292"},{"longitude":"-48.204402","color":"green","name":"Araguaína, TO <br> GPON","tecnologia":"GPON","cidade":"Araguaína","uf":"TO","latitude":"-7.192375"},{"longitude":"-49.068046","color":"green","name":"Gurupi, TO <br> GPON","tecnologia":"GPON","cidade":"Gurupi","uf":"TO","latitude":"-11.72794"}]
