[{"uf":"AL","latitude":"-9.754866","tecnologia":"GPON","color":"green","longitude":"-36.661471","cidade":"Arapiraca","name":"Arapiraca, AL <br> GPON"},{"uf":"GO","latitude":"-16.651708","tecnologia":"GPON","color":"green","longitude":"-49.492667","cidade":"Trindade","name":"Trindade, GO <br> GPON"},{"uf":"MG","latitude":"-19.590176","tecnologia":"GPON","color":"green","longitude":"-46.943804","cidade":"Araxá","name":"Araxá, MG <br> GPON"},{"uf":"MG","latitude":"-22.422481","tecnologia":"GPON","color":"green","longitude":"-45.459818","cidade":"Itajubá","name":"Itajubá, MG <br> GPON"},{"uf":"RJ","latitude":"-22.158462","tecnologia":"GPON","color":"green","longitude":"-43.304004","cidade":"Paraíba Do Sul","name":"Paraíba Do Sul, RJ <br> GPON"},{"uf":"RO","latitude":"-10.877741","tecnologia":"GPON","color":"green","longitude":"-61.932152","cidade":"Ji-Paraná","name":"Ji-Paraná, RO <br> GPON"},{"uf":"RS","latitude":"-30.848897","tecnologia":"GPON","color":"green","longitude":"-51.80431","cidade":"Camaquã","name":"Camaquã, RS <br> GPON"},{"uf":"RS","latitude":"-29.58356","tecnologia":"GPON","color":"green","longitude":"-51.089776","cidade":"Dois Irmãos","name":"Dois Irmãos, RS <br> GPON"},{"uf":"RS","latitude":"-28.449754","tecnologia":"GPON","color":"green","longitude":"-52.198625","cidade":"Marau","name":"Marau, RS <br> GPON"},{"uf":"RS","latitude":"-28.507868","tecnologia":"GPON","color":"green","longitude":"-50.941791","cidade":"Vacaria","name":"Vacaria, RS <br> GPON"},{"uf":"SC","latitude":"-28.713206","tecnologia":"GPON","color":"green","longitude":"-49.308654","cidade":"Içara","name":"Içara, SC <br> GPON"},{"uf":"SP","latitude":"-22.469433","tecnologia":"GPON","color":"green","longitude":"-48.98632","cidade":"Agudos","name":"Agudos, SP <br> GPON"},{"uf":"SP","latitude":"-21.77081","tecnologia":"GPON","color":"green","longitude":"-47.085245","cidade":"Casa Branca","name":"Casa Branca, SP <br> GPON"},{"uf":"SP","latitude":"-21.958358","tecnologia":"GPON","color":"green","longitude":"-47.988211","cidade":"Ibaté","name":"Ibaté, SP <br> GPON"},{"uf":"SP","latitude":"-22.70374","tecnologia":"GPON","color":"green","longitude":"-46.985062","cidade":"Jaguariúna","name":"Jaguariúna, SP <br> GPON"},{"uf":"SP","latitude":"-23.713941","tecnologia":"GPON","color":"green","longitude":"-47.425572","cidade":"Piedade","name":"Piedade, SP <br> GPON"},{"uf":"SP","latitude":"-21.823475","tecnologia":"GPON","color":"green","longitude":"-47.248023","cidade":"Santa Cruz das Palmeiras","name":"Santa Cruz das Palmeiras, SP <br> GPON"},{"uf":"SP","latitude":"-21.70292","tecnologia":"GPON","color":"green","longitude":"-47.270344","cidade":"Tambaú","name":"Tambaú, SP <br> GPON"},{"uf":"TO","latitude":"-7.192375","tecnologia":"GPON","color":"green","longitude":"-48.204402","cidade":"Araguaína","name":"Araguaína, TO <br> GPON"},{"uf":"TO","latitude":"-11.72794","tecnologia":"GPON","color":"green","longitude":"-49.068046","cidade":"Gurupi","name":"Gurupi, TO <br> GPON"}]
