[{"longitude":"-36.661471","name":"Arapiraca, AL <br> GPON","latitude":"-9.754866","tecnologia":"GPON","color":"green","uf":"AL","cidade":"Arapiraca"},{"longitude":"-49.492667","name":"Trindade, GO <br> GPON","latitude":"-16.651708","tecnologia":"GPON","color":"green","uf":"GO","cidade":"Trindade"},{"longitude":"-46.943804","name":"Araxá, MG <br> GPON","latitude":"-19.590176","tecnologia":"GPON","color":"green","uf":"MG","cidade":"Araxá"},{"longitude":"-45.459818","name":"Itajubá, MG <br> GPON","latitude":"-22.422481","tecnologia":"GPON","color":"green","uf":"MG","cidade":"Itajubá"},{"longitude":"-43.304004","name":"Paraíba Do Sul, RJ <br> GPON","latitude":"-22.158462","tecnologia":"GPON","color":"green","uf":"RJ","cidade":"Paraíba Do Sul"},{"longitude":"-61.932152","name":"Ji-Paraná, RO <br> GPON","latitude":"-10.877741","tecnologia":"GPON","color":"green","uf":"RO","cidade":"Ji-Paraná"},{"longitude":"-51.80431","name":"Camaquã, RS <br> GPON","latitude":"-30.848897","tecnologia":"GPON","color":"green","uf":"RS","cidade":"Camaquã"},{"longitude":"-51.089776","name":"Dois Irmãos, RS <br> GPON","latitude":"-29.58356","tecnologia":"GPON","color":"green","uf":"RS","cidade":"Dois Irmãos"},{"longitude":"-52.198625","name":"Marau, RS <br> GPON","latitude":"-28.449754","tecnologia":"GPON","color":"green","uf":"RS","cidade":"Marau"},{"longitude":"-50.941791","name":"Vacaria, RS <br> GPON","latitude":"-28.507868","tecnologia":"GPON","color":"green","uf":"RS","cidade":"Vacaria"},{"longitude":"-49.308654","name":"Içara, SC <br> GPON","latitude":"-28.713206","tecnologia":"GPON","color":"green","uf":"SC","cidade":"Içara"},{"longitude":"-48.98632","name":"Agudos, SP <br> GPON","latitude":"-22.469433","tecnologia":"GPON","color":"green","uf":"SP","cidade":"Agudos"},{"longitude":"-47.085245","name":"Casa Branca, SP <br> GPON","latitude":"-21.77081","tecnologia":"GPON","color":"green","uf":"SP","cidade":"Casa Branca"},{"longitude":"-47.988211","name":"Ibaté, SP <br> GPON","latitude":"-21.958358","tecnologia":"GPON","color":"green","uf":"SP","cidade":"Ibaté"},{"longitude":"-46.985062","name":"Jaguariúna, SP <br> GPON","latitude":"-22.70374","tecnologia":"GPON","color":"green","uf":"SP","cidade":"Jaguariúna"},{"longitude":"-47.425572","name":"Piedade, SP <br> GPON","latitude":"-23.713941","tecnologia":"GPON","color":"green","uf":"SP","cidade":"Piedade"},{"longitude":"-47.248023","name":"Santa Cruz das Palmeiras, SP <br> GPON","latitude":"-21.823475","tecnologia":"GPON","color":"green","uf":"SP","cidade":"Santa Cruz das Palmeiras"},{"longitude":"-47.270344","name":"Tambaú, SP <br> GPON","latitude":"-21.70292","tecnologia":"GPON","color":"green","uf":"SP","cidade":"Tambaú"},{"longitude":"-48.204402","name":"Araguaína, TO <br> GPON","latitude":"-7.192375","tecnologia":"GPON","color":"green","uf":"TO","cidade":"Araguaína"},{"longitude":"-49.068046","name":"Gurupi, TO <br> GPON","latitude":"-11.72794","tecnologia":"GPON","color":"green","uf":"TO","cidade":"Gurupi"}]
