[{"color":"green","tecnologia":"GPON","longitude":"-36.661471","cidade":"Arapiraca","name":"Arapiraca, AL <br> GPON","latitude":"-9.754866","uf":"AL"},{"color":"green","tecnologia":"GPON","longitude":"-49.492667","cidade":"Trindade","name":"Trindade, GO <br> GPON","latitude":"-16.651708","uf":"GO"},{"color":"green","tecnologia":"GPON","longitude":"-46.943804","cidade":"Araxá","name":"Araxá, MG <br> GPON","latitude":"-19.590176","uf":"MG"},{"color":"green","tecnologia":"GPON","longitude":"-45.459818","cidade":"Itajubá","name":"Itajubá, MG <br> GPON","latitude":"-22.422481","uf":"MG"},{"color":"green","tecnologia":"GPON","longitude":"-43.304004","cidade":"Paraíba Do Sul","name":"Paraíba Do Sul, RJ <br> GPON","latitude":"-22.158462","uf":"RJ"},{"color":"green","tecnologia":"GPON","longitude":"-61.932152","cidade":"Ji-Paraná","name":"Ji-Paraná, RO <br> GPON","latitude":"-10.877741","uf":"RO"},{"color":"green","tecnologia":"GPON","longitude":"-51.80431","cidade":"Camaquã","name":"Camaquã, RS <br> GPON","latitude":"-30.848897","uf":"RS"},{"color":"green","tecnologia":"GPON","longitude":"-51.089776","cidade":"Dois Irmãos","name":"Dois Irmãos, RS <br> GPON","latitude":"-29.58356","uf":"RS"},{"color":"green","tecnologia":"GPON","longitude":"-52.198625","cidade":"Marau","name":"Marau, RS <br> GPON","latitude":"-28.449754","uf":"RS"},{"color":"green","tecnologia":"GPON","longitude":"-50.941791","cidade":"Vacaria","name":"Vacaria, RS <br> GPON","latitude":"-28.507868","uf":"RS"},{"color":"green","tecnologia":"GPON","longitude":"-49.308654","cidade":"Içara","name":"Içara, SC <br> GPON","latitude":"-28.713206","uf":"SC"},{"color":"green","tecnologia":"GPON","longitude":"-48.98632","cidade":"Agudos","name":"Agudos, SP <br> GPON","latitude":"-22.469433","uf":"SP"},{"color":"green","tecnologia":"GPON","longitude":"-47.085245","cidade":"Casa Branca","name":"Casa Branca, SP <br> GPON","latitude":"-21.77081","uf":"SP"},{"color":"green","tecnologia":"GPON","longitude":"-47.988211","cidade":"Ibaté","name":"Ibaté, SP <br> GPON","latitude":"-21.958358","uf":"SP"},{"color":"green","tecnologia":"GPON","longitude":"-46.985062","cidade":"Jaguariúna","name":"Jaguariúna, SP <br> GPON","latitude":"-22.70374","uf":"SP"},{"color":"green","tecnologia":"GPON","longitude":"-47.425572","cidade":"Piedade","name":"Piedade, SP <br> GPON","latitude":"-23.713941","uf":"SP"},{"color":"green","tecnologia":"GPON","longitude":"-47.248023","cidade":"Santa Cruz das Palmeiras","name":"Santa Cruz das Palmeiras, SP <br> GPON","latitude":"-21.823475","uf":"SP"},{"color":"green","tecnologia":"GPON","longitude":"-47.270344","cidade":"Tambaú","name":"Tambaú, SP <br> GPON","latitude":"-21.70292","uf":"SP"},{"color":"green","tecnologia":"GPON","longitude":"-48.204402","cidade":"Araguaína","name":"Araguaína, TO <br> GPON","latitude":"-7.192375","uf":"TO"},{"color":"green","tecnologia":"GPON","longitude":"-49.068046","cidade":"Gurupi","name":"Gurupi, TO <br> GPON","latitude":"-11.72794","uf":"TO"}]
