[{"color":"green","uf":"AL","tecnologia":"GPON","name":"Arapiraca, AL <br> GPON","cidade":"Arapiraca","latitude":"-9.754866","longitude":"-36.661471"},{"color":"green","uf":"GO","tecnologia":"GPON","name":"Trindade, GO <br> GPON","cidade":"Trindade","latitude":"-16.651708","longitude":"-49.492667"},{"color":"green","uf":"MG","tecnologia":"GPON","name":"Araxá, MG <br> GPON","cidade":"Araxá","latitude":"-19.590176","longitude":"-46.943804"},{"color":"green","uf":"MG","tecnologia":"GPON","name":"Itajubá, MG <br> GPON","cidade":"Itajubá","latitude":"-22.422481","longitude":"-45.459818"},{"color":"green","uf":"RJ","tecnologia":"GPON","name":"Paraíba Do Sul, RJ <br> GPON","cidade":"Paraíba Do Sul","latitude":"-22.158462","longitude":"-43.304004"},{"color":"green","uf":"RO","tecnologia":"GPON","name":"Ji-Paraná, RO <br> GPON","cidade":"Ji-Paraná","latitude":"-10.877741","longitude":"-61.932152"},{"color":"green","uf":"RS","tecnologia":"GPON","name":"Camaquã, RS <br> GPON","cidade":"Camaquã","latitude":"-30.848897","longitude":"-51.80431"},{"color":"green","uf":"RS","tecnologia":"GPON","name":"Dois Irmãos, RS <br> GPON","cidade":"Dois Irmãos","latitude":"-29.58356","longitude":"-51.089776"},{"color":"green","uf":"RS","tecnologia":"GPON","name":"Marau, RS <br> GPON","cidade":"Marau","latitude":"-28.449754","longitude":"-52.198625"},{"color":"green","uf":"RS","tecnologia":"GPON","name":"Vacaria, RS <br> GPON","cidade":"Vacaria","latitude":"-28.507868","longitude":"-50.941791"},{"color":"green","uf":"SC","tecnologia":"GPON","name":"Içara, SC <br> GPON","cidade":"Içara","latitude":"-28.713206","longitude":"-49.308654"},{"color":"green","uf":"SP","tecnologia":"GPON","name":"Agudos, SP <br> GPON","cidade":"Agudos","latitude":"-22.469433","longitude":"-48.98632"},{"color":"green","uf":"SP","tecnologia":"GPON","name":"Casa Branca, SP <br> GPON","cidade":"Casa Branca","latitude":"-21.77081","longitude":"-47.085245"},{"color":"green","uf":"SP","tecnologia":"GPON","name":"Ibaté, SP <br> GPON","cidade":"Ibaté","latitude":"-21.958358","longitude":"-47.988211"},{"color":"green","uf":"SP","tecnologia":"GPON","name":"Jaguariúna, SP <br> GPON","cidade":"Jaguariúna","latitude":"-22.70374","longitude":"-46.985062"},{"color":"green","uf":"SP","tecnologia":"GPON","name":"Piedade, SP <br> GPON","cidade":"Piedade","latitude":"-23.713941","longitude":"-47.425572"},{"color":"green","uf":"SP","tecnologia":"GPON","name":"Santa Cruz das Palmeiras, SP <br> GPON","cidade":"Santa Cruz das Palmeiras","latitude":"-21.823475","longitude":"-47.248023"},{"color":"green","uf":"SP","tecnologia":"GPON","name":"Tambaú, SP <br> GPON","cidade":"Tambaú","latitude":"-21.70292","longitude":"-47.270344"},{"color":"green","uf":"TO","tecnologia":"GPON","name":"Araguaína, TO <br> GPON","cidade":"Araguaína","latitude":"-7.192375","longitude":"-48.204402"},{"color":"green","uf":"TO","tecnologia":"GPON","name":"Gurupi, TO <br> GPON","cidade":"Gurupi","latitude":"-11.72794","longitude":"-49.068046"}]
