[{"color":"orange","uf":"ERRO CADASTRO API AL","tecnologia":"ERRO na consulta API","name":"Campo Grande, ERRO CADASTRO API AL <br> ERRO na consulta API","cidade":"Campo Grande","latitude":"-9.955423","longitude":"-36.792608"},{"color":"orange","uf":"ERRO CADASTRO API BA","tecnologia":"ERRO na consulta API","name":"Maraú, ERRO CADASTRO API BA <br> ERRO na consulta API","cidade":"Maraú","latitude":"-14.103549","longitude":"-39.013656"},{"color":"orange","uf":"ERRO CADASTRO API BA","tecnologia":"ERRO na consulta API","name":"Santa Luzia, ERRO CADASTRO API BA <br> ERRO na consulta API","cidade":"Santa Luzia","latitude":"-15.434188","longitude":"-39.328678"},{"color":"orange","uf":"ERRO CADASTRO API BA","tecnologia":"ERRO na consulta API","name":"Santana, ERRO CADASTRO API BA <br> ERRO na consulta API","cidade":"Santana","latitude":"-12.979217","longitude":"-44.05064"},{"color":"orange","uf":"ERRO CADASTRO API BA","tecnologia":"ERRO na consulta API","name":"Vera Cruz, ERRO CADASTRO API BA <br> ERRO na consulta API","cidade":"Vera Cruz","latitude":"-12.956845","longitude":"-38.615295"},{"color":"orange","uf":"ERRO CADASTRO API CE","tecnologia":"ERRO na consulta API","name":"Cascavel, ERRO CADASTRO API CE <br> ERRO na consulta API","cidade":"Cascavel","latitude":"-4.129666","longitude":"-38.241178"},{"color":"orange","uf":"ERRO CADASTRO API GO","tecnologia":"ERRO na consulta API","name":"Lagoa Santa, ERRO CADASTRO API GO <br> ERRO na consulta API","cidade":"Lagoa Santa","latitude":"-19.185113","longitude":"-51.399333"},{"color":"orange","uf":"ERRO CADASTRO API GO","tecnologia":"ERRO na consulta API","name":"Santa Isabel, ERRO CADASTRO API GO <br> ERRO na consulta API","cidade":"Santa Isabel","latitude":"-15.295849","longitude":"-49.425931"},{"color":"orange","uf":"ERRO CADASTRO API MA","tecnologia":"ERRO na consulta API","name":"Santa Luzia, ERRO CADASTRO API MA <br> ERRO na consulta API","cidade":"Santa Luzia","latitude":"-4.068726","longitude":"-45.690026"},{"color":"orange","uf":"ERRO CADASTRO API MG","tecnologia":"ERRO na consulta API","name":"Itapeva, ERRO CADASTRO API MG <br> ERRO na consulta API","cidade":"Itapeva","latitude":"-22.766488","longitude":"-46.224053"},{"color":"orange","uf":"ERRO CADASTRO API MG","tecnologia":"ERRO na consulta API","name":"Mesquita, ERRO CADASTRO API MG <br> ERRO na consulta API","cidade":"Mesquita","latitude":"-19.224022","longitude":"-42.607877"},{"color":"orange","uf":"ERRO CADASTRO API MG","tecnologia":"ERRO na consulta API","name":"Presidente Bernardes, ERRO CADASTRO API MG <br> ERRO na consulta API","cidade":"Presidente Bernardes","latitude":"-20.76557","longitude":"-43.189532"},{"color":"orange","uf":"ERRO CADASTRO API MG","tecnologia":"ERRO na consulta API","name":"Toledo, ERRO CADASTRO API MG <br> ERRO na consulta API","cidade":"Toledo","latitude":"-22.742133","longitude":"-46.372772"},{"color":"orange","uf":"ERRO CADASTRO API MT","tecnologia":"ERRO na consulta API","name":"Rio Branco, ERRO CADASTRO API MT <br> ERRO na consulta API","cidade":"Rio Branco","latitude":"-15.248331","longitude":"-58.125892"},{"color":"orange","uf":"ERRO CADASTRO API PB","tecnologia":"ERRO na consulta API","name":"Amparo, ERRO CADASTRO API PB <br> ERRO na consulta API","cidade":"Amparo","latitude":"-7.555022","longitude":"-37.062838"},{"color":"orange","uf":"ERRO CADASTRO API PB","tecnologia":"ERRO na consulta API","name":"Aparecida, ERRO CADASTRO API PB <br> ERRO na consulta API","cidade":"Aparecida","latitude":"-6.784657","longitude":"-38.080259"},{"color":"orange","uf":"ERRO CADASTRO API PB","tecnologia":"ERRO na consulta API","name":"Paulista, ERRO CADASTRO API PB <br> ERRO na consulta API","cidade":"Paulista","latitude":"-6.591381","longitude":"-37.618548"},{"color":"orange","uf":"ERRO CADASTRO API PB","tecnologia":"ERRO na consulta API","name":"Santa Luzia, ERRO CADASTRO API PB <br> ERRO na consulta API","cidade":"Santa Luzia","latitude":"-6.860922","longitude":"-36.917792"},{"color":"orange","uf":"ERRO CADASTRO API PE","tecnologia":"ERRO na consulta API","name":"Cachoeirinha, ERRO CADASTRO API PE <br> ERRO na consulta API","cidade":"Cachoeirinha","latitude":"-8.486685","longitude":"-36.240182"},{"color":"orange","uf":"ERRO CADASTRO API PE","tecnologia":"ERRO na consulta API","name":"Parnamirim, ERRO CADASTRO API PE <br> ERRO na consulta API","cidade":"Parnamirim","latitude":"-8.087292","longitude":"-39.579547"},{"color":"orange","uf":"ERRO CADASTRO API PE","tecnologia":"ERRO na consulta API","name":"Trindade, ERRO CADASTRO API PE <br> ERRO na consulta API","cidade":"Trindade","latitude":"-7.759","longitude":"-40.26472"},{"color":"orange","uf":"ERRO CADASTRO API RJ","tecnologia":"ERRO na consulta API","name":"Rio Claro, ERRO CADASTRO API RJ <br> ERRO na consulta API","cidade":"Rio Claro","latitude":"-22.720001","longitude":"-44.141874"},{"color":"orange","uf":"ERRO CADASTRO API RN","tecnologia":"ERRO na consulta API","name":"Santa Maria, ERRO CADASTRO API RN <br> ERRO na consulta API","cidade":"Santa Maria","latitude":"-5.838022","longitude":"-35.691409"},{"color":"orange","uf":"ERRO CADASTRO API RN","tecnologia":"ERRO na consulta API","name":"Vera Cruz, ERRO CADASTRO API RN <br> ERRO na consulta API","cidade":"Vera Cruz","latitude":"-6.043989","longitude":"-35.427979"},{"color":"orange","uf":"ERRO CADASTRO API RS","tecnologia":"ERRO na consulta API","name":"Sarandi, ERRO CADASTRO API RS <br> ERRO na consulta API","cidade":"Sarandi","latitude":"-27.942","longitude":"-52.923085"},{"color":"orange","uf":"ERRO CADASTRO API SC","tecnologia":"ERRO na consulta API","name":"Praia Grande, ERRO CADASTRO API SC <br> ERRO na consulta API","cidade":"Praia Grande","latitude":"-29.191846","longitude":"-49.952503"},{"color":"orange","uf":"ERRO CADASTRO API SP","tecnologia":"ERRO na consulta API","name":"Vera Cruz, ERRO CADASTRO API SP <br> ERRO na consulta API","cidade":"Vera Cruz","latitude":"-22.218308","longitude":"-49.820735"},{"color":"orange","uf":"ERRO CADASTRO API TO","tecnologia":"ERRO na consulta API","name":"Alvorada, ERRO CADASTRO API TO <br> ERRO na consulta API","cidade":"Alvorada","latitude":"-12.478465","longitude":"-49.124926"},{"color":"orange","uf":"ERRO CADASTRO API TO","tecnologia":"ERRO na consulta API","name":"Cachoeirinha, ERRO CADASTRO API TO <br> ERRO na consulta API","cidade":"Cachoeirinha","latitude":"-6.115596","longitude":"-47.923399"},{"color":"orange","uf":"ERRO CADASTRO API TO","tecnologia":"ERRO na consulta API","name":"Lajeado, ERRO CADASTRO API TO <br> ERRO na consulta API","cidade":"Lajeado","latitude":"-9.749956","longitude":"-48.356482"}]
