[{"name":"São Gonçalo, RJ <br> HFC","latitude":"-22.82679","longitude":"-43.063351","tecnologia":"HFC","uf":"RJ","cidade":"São Gonçalo","color":"red"},{"name":"Criciúma, SC <br> HFC","latitude":"-28.672267","longitude":"-49.372887","tecnologia":"HFC","uf":"SC","cidade":"Criciúma","color":"red"},{"name":"Mogi das Cruzes, SP <br> HFC","latitude":"-23.52082","longitude":"-46.18541","tecnologia":"HFC","uf":"SP","cidade":"Mogi das Cruzes","color":"red"},{"name":"Santa Branca, SP <br> HFC","latitude":"-23.393311","longitude":"-45.887521","tecnologia":"HFC","uf":"SP","cidade":"Santa Branca","color":"red"},{"name":"Palmas, TO <br> HFC","latitude":"-10.239973","longitude":"-48.355751","tecnologia":"HFC","uf":"TO","cidade":"Palmas","color":"red"}]
