[{"color":"orange","uf":"ERRO CADASTRO API AL","longitude":"-36.792608","tecnologia":"ERRO na consulta API","latitude":"-9.955423","name":"Campo Grande, ERRO CADASTRO API AL <br> ERRO na consulta API","cidade":"Campo Grande"},{"color":"orange","uf":"ERRO CADASTRO API BA","longitude":"-39.013656","tecnologia":"ERRO na consulta API","latitude":"-14.103549","name":"Maraú, ERRO CADASTRO API BA <br> ERRO na consulta API","cidade":"Maraú"},{"color":"orange","uf":"ERRO CADASTRO API BA","longitude":"-39.328678","tecnologia":"ERRO na consulta API","latitude":"-15.434188","name":"Santa Luzia, ERRO CADASTRO API BA <br> ERRO na consulta API","cidade":"Santa Luzia"},{"color":"orange","uf":"ERRO CADASTRO API BA","longitude":"-44.05064","tecnologia":"ERRO na consulta API","latitude":"-12.979217","name":"Santana, ERRO CADASTRO API BA <br> ERRO na consulta API","cidade":"Santana"},{"color":"orange","uf":"ERRO CADASTRO API BA","longitude":"-38.615295","tecnologia":"ERRO na consulta API","latitude":"-12.956845","name":"Vera Cruz, ERRO CADASTRO API BA <br> ERRO na consulta API","cidade":"Vera Cruz"},{"color":"orange","uf":"ERRO CADASTRO API CE","longitude":"-38.241178","tecnologia":"ERRO na consulta API","latitude":"-4.129666","name":"Cascavel, ERRO CADASTRO API CE <br> ERRO na consulta API","cidade":"Cascavel"},{"color":"orange","uf":"ERRO CADASTRO API GO","longitude":"-51.399333","tecnologia":"ERRO na consulta API","latitude":"-19.185113","name":"Lagoa Santa, ERRO CADASTRO API GO <br> ERRO na consulta API","cidade":"Lagoa Santa"},{"color":"orange","uf":"ERRO CADASTRO API GO","longitude":"-49.425931","tecnologia":"ERRO na consulta API","latitude":"-15.295849","name":"Santa Isabel, ERRO CADASTRO API GO <br> ERRO na consulta API","cidade":"Santa Isabel"},{"color":"orange","uf":"ERRO CADASTRO API MA","longitude":"-45.690026","tecnologia":"ERRO na consulta API","latitude":"-4.068726","name":"Santa Luzia, ERRO CADASTRO API MA <br> ERRO na consulta API","cidade":"Santa Luzia"},{"color":"orange","uf":"ERRO CADASTRO API MG","longitude":"-46.224053","tecnologia":"ERRO na consulta API","latitude":"-22.766488","name":"Itapeva, ERRO CADASTRO API MG <br> ERRO na consulta API","cidade":"Itapeva"},{"color":"orange","uf":"ERRO CADASTRO API MG","longitude":"-42.607877","tecnologia":"ERRO na consulta API","latitude":"-19.224022","name":"Mesquita, ERRO CADASTRO API MG <br> ERRO na consulta API","cidade":"Mesquita"},{"color":"orange","uf":"ERRO CADASTRO API MG","longitude":"-43.189532","tecnologia":"ERRO na consulta API","latitude":"-20.76557","name":"Presidente Bernardes, ERRO CADASTRO API MG <br> ERRO na consulta API","cidade":"Presidente Bernardes"},{"color":"orange","uf":"ERRO CADASTRO API MG","longitude":"-46.372772","tecnologia":"ERRO na consulta API","latitude":"-22.742133","name":"Toledo, ERRO CADASTRO API MG <br> ERRO na consulta API","cidade":"Toledo"},{"color":"orange","uf":"ERRO CADASTRO API MT","longitude":"-58.125892","tecnologia":"ERRO na consulta API","latitude":"-15.248331","name":"Rio Branco, ERRO CADASTRO API MT <br> ERRO na consulta API","cidade":"Rio Branco"},{"color":"orange","uf":"ERRO CADASTRO API PB","longitude":"-37.062838","tecnologia":"ERRO na consulta API","latitude":"-7.555022","name":"Amparo, ERRO CADASTRO API PB <br> ERRO na consulta API","cidade":"Amparo"},{"color":"orange","uf":"ERRO CADASTRO API PB","longitude":"-38.080259","tecnologia":"ERRO na consulta API","latitude":"-6.784657","name":"Aparecida, ERRO CADASTRO API PB <br> ERRO na consulta API","cidade":"Aparecida"},{"color":"orange","uf":"ERRO CADASTRO API PB","longitude":"-37.618548","tecnologia":"ERRO na consulta API","latitude":"-6.591381","name":"Paulista, ERRO CADASTRO API PB <br> ERRO na consulta API","cidade":"Paulista"},{"color":"orange","uf":"ERRO CADASTRO API PB","longitude":"-36.917792","tecnologia":"ERRO na consulta API","latitude":"-6.860922","name":"Santa Luzia, ERRO CADASTRO API PB <br> ERRO na consulta API","cidade":"Santa Luzia"},{"color":"orange","uf":"ERRO CADASTRO API PE","longitude":"-36.240182","tecnologia":"ERRO na consulta API","latitude":"-8.486685","name":"Cachoeirinha, ERRO CADASTRO API PE <br> ERRO na consulta API","cidade":"Cachoeirinha"},{"color":"orange","uf":"ERRO CADASTRO API PE","longitude":"-39.579547","tecnologia":"ERRO na consulta API","latitude":"-8.087292","name":"Parnamirim, ERRO CADASTRO API PE <br> ERRO na consulta API","cidade":"Parnamirim"},{"color":"orange","uf":"ERRO CADASTRO API PE","longitude":"-40.26472","tecnologia":"ERRO na consulta API","latitude":"-7.759","name":"Trindade, ERRO CADASTRO API PE <br> ERRO na consulta API","cidade":"Trindade"},{"color":"orange","uf":"ERRO CADASTRO API RJ","longitude":"-44.141874","tecnologia":"ERRO na consulta API","latitude":"-22.720001","name":"Rio Claro, ERRO CADASTRO API RJ <br> ERRO na consulta API","cidade":"Rio Claro"},{"color":"orange","uf":"ERRO CADASTRO API RN","longitude":"-35.691409","tecnologia":"ERRO na consulta API","latitude":"-5.838022","name":"Santa Maria, ERRO CADASTRO API RN <br> ERRO na consulta API","cidade":"Santa Maria"},{"color":"orange","uf":"ERRO CADASTRO API RN","longitude":"-35.427979","tecnologia":"ERRO na consulta API","latitude":"-6.043989","name":"Vera Cruz, ERRO CADASTRO API RN <br> ERRO na consulta API","cidade":"Vera Cruz"},{"color":"orange","uf":"ERRO CADASTRO API RS","longitude":"-52.923085","tecnologia":"ERRO na consulta API","latitude":"-27.942","name":"Sarandi, ERRO CADASTRO API RS <br> ERRO na consulta API","cidade":"Sarandi"},{"color":"orange","uf":"ERRO CADASTRO API SC","longitude":"-49.952503","tecnologia":"ERRO na consulta API","latitude":"-29.191846","name":"Praia Grande, ERRO CADASTRO API SC <br> ERRO na consulta API","cidade":"Praia Grande"},{"color":"orange","uf":"ERRO CADASTRO API SP","longitude":"-49.820735","tecnologia":"ERRO na consulta API","latitude":"-22.218308","name":"Vera Cruz, ERRO CADASTRO API SP <br> ERRO na consulta API","cidade":"Vera Cruz"},{"color":"orange","uf":"ERRO CADASTRO API TO","longitude":"-49.124926","tecnologia":"ERRO na consulta API","latitude":"-12.478465","name":"Alvorada, ERRO CADASTRO API TO <br> ERRO na consulta API","cidade":"Alvorada"},{"color":"orange","uf":"ERRO CADASTRO API TO","longitude":"-47.923399","tecnologia":"ERRO na consulta API","latitude":"-6.115596","name":"Cachoeirinha, ERRO CADASTRO API TO <br> ERRO na consulta API","cidade":"Cachoeirinha"},{"color":"orange","uf":"ERRO CADASTRO API TO","longitude":"-48.356482","tecnologia":"ERRO na consulta API","latitude":"-9.749956","name":"Lajeado, ERRO CADASTRO API TO <br> ERRO na consulta API","cidade":"Lajeado"}]
