[{"tecnologia":"GPON","color":"green","name":"Arapiraca, AL <br> GPON","uf":"AL","latitude":"-9.754866","cidade":"Arapiraca","longitude":"-36.661471"},{"tecnologia":"GPON","color":"green","name":"Trindade, GO <br> GPON","uf":"GO","latitude":"-16.651708","cidade":"Trindade","longitude":"-49.492667"},{"tecnologia":"GPON","color":"green","name":"Araxá, MG <br> GPON","uf":"MG","latitude":"-19.590176","cidade":"Araxá","longitude":"-46.943804"},{"tecnologia":"GPON","color":"green","name":"Itajubá, MG <br> GPON","uf":"MG","latitude":"-22.422481","cidade":"Itajubá","longitude":"-45.459818"},{"tecnologia":"GPON","color":"green","name":"Paraíba Do Sul, RJ <br> GPON","uf":"RJ","latitude":"-22.158462","cidade":"Paraíba Do Sul","longitude":"-43.304004"},{"tecnologia":"GPON","color":"green","name":"Ji-Paraná, RO <br> GPON","uf":"RO","latitude":"-10.877741","cidade":"Ji-Paraná","longitude":"-61.932152"},{"tecnologia":"GPON","color":"green","name":"Camaquã, RS <br> GPON","uf":"RS","latitude":"-30.848897","cidade":"Camaquã","longitude":"-51.80431"},{"tecnologia":"GPON","color":"green","name":"Dois Irmãos, RS <br> GPON","uf":"RS","latitude":"-29.58356","cidade":"Dois Irmãos","longitude":"-51.089776"},{"tecnologia":"GPON","color":"green","name":"Marau, RS <br> GPON","uf":"RS","latitude":"-28.449754","cidade":"Marau","longitude":"-52.198625"},{"tecnologia":"GPON","color":"green","name":"Vacaria, RS <br> GPON","uf":"RS","latitude":"-28.507868","cidade":"Vacaria","longitude":"-50.941791"},{"tecnologia":"GPON","color":"green","name":"Içara, SC <br> GPON","uf":"SC","latitude":"-28.713206","cidade":"Içara","longitude":"-49.308654"},{"tecnologia":"GPON","color":"green","name":"Agudos, SP <br> GPON","uf":"SP","latitude":"-22.469433","cidade":"Agudos","longitude":"-48.98632"},{"tecnologia":"GPON","color":"green","name":"Casa Branca, SP <br> GPON","uf":"SP","latitude":"-21.77081","cidade":"Casa Branca","longitude":"-47.085245"},{"tecnologia":"GPON","color":"green","name":"Ibaté, SP <br> GPON","uf":"SP","latitude":"-21.958358","cidade":"Ibaté","longitude":"-47.988211"},{"tecnologia":"GPON","color":"green","name":"Jaguariúna, SP <br> GPON","uf":"SP","latitude":"-22.70374","cidade":"Jaguariúna","longitude":"-46.985062"},{"tecnologia":"GPON","color":"green","name":"Piedade, SP <br> GPON","uf":"SP","latitude":"-23.713941","cidade":"Piedade","longitude":"-47.425572"},{"tecnologia":"GPON","color":"green","name":"Santa Cruz das Palmeiras, SP <br> GPON","uf":"SP","latitude":"-21.823475","cidade":"Santa Cruz das Palmeiras","longitude":"-47.248023"},{"tecnologia":"GPON","color":"green","name":"Tambaú, SP <br> GPON","uf":"SP","latitude":"-21.70292","cidade":"Tambaú","longitude":"-47.270344"},{"tecnologia":"GPON","color":"green","name":"Araguaína, TO <br> GPON","uf":"TO","latitude":"-7.192375","cidade":"Araguaína","longitude":"-48.204402"},{"tecnologia":"GPON","color":"green","name":"Gurupi, TO <br> GPON","uf":"TO","latitude":"-11.72794","cidade":"Gurupi","longitude":"-49.068046"}]
