[{"longitude":"-36.661471","cidade":"Arapiraca","latitude":"-9.754866","uf":"AL","color":"green","tecnologia":"GPON","name":"Arapiraca, AL <br> GPON"},{"longitude":"-49.492667","cidade":"Trindade","latitude":"-16.651708","uf":"GO","color":"green","tecnologia":"GPON","name":"Trindade, GO <br> GPON"},{"longitude":"-46.943804","cidade":"Araxá","latitude":"-19.590176","uf":"MG","color":"green","tecnologia":"GPON","name":"Araxá, MG <br> GPON"},{"longitude":"-45.459818","cidade":"Itajubá","latitude":"-22.422481","uf":"MG","color":"green","tecnologia":"GPON","name":"Itajubá, MG <br> GPON"},{"longitude":"-43.304004","cidade":"Paraíba Do Sul","latitude":"-22.158462","uf":"RJ","color":"green","tecnologia":"GPON","name":"Paraíba Do Sul, RJ <br> GPON"},{"longitude":"-61.932152","cidade":"Ji-Paraná","latitude":"-10.877741","uf":"RO","color":"green","tecnologia":"GPON","name":"Ji-Paraná, RO <br> GPON"},{"longitude":"-51.80431","cidade":"Camaquã","latitude":"-30.848897","uf":"RS","color":"green","tecnologia":"GPON","name":"Camaquã, RS <br> GPON"},{"longitude":"-51.089776","cidade":"Dois Irmãos","latitude":"-29.58356","uf":"RS","color":"green","tecnologia":"GPON","name":"Dois Irmãos, RS <br> GPON"},{"longitude":"-52.198625","cidade":"Marau","latitude":"-28.449754","uf":"RS","color":"green","tecnologia":"GPON","name":"Marau, RS <br> GPON"},{"longitude":"-50.941791","cidade":"Vacaria","latitude":"-28.507868","uf":"RS","color":"green","tecnologia":"GPON","name":"Vacaria, RS <br> GPON"},{"longitude":"-49.308654","cidade":"Içara","latitude":"-28.713206","uf":"SC","color":"green","tecnologia":"GPON","name":"Içara, SC <br> GPON"},{"longitude":"-48.98632","cidade":"Agudos","latitude":"-22.469433","uf":"SP","color":"green","tecnologia":"GPON","name":"Agudos, SP <br> GPON"},{"longitude":"-47.085245","cidade":"Casa Branca","latitude":"-21.77081","uf":"SP","color":"green","tecnologia":"GPON","name":"Casa Branca, SP <br> GPON"},{"longitude":"-47.988211","cidade":"Ibaté","latitude":"-21.958358","uf":"SP","color":"green","tecnologia":"GPON","name":"Ibaté, SP <br> GPON"},{"longitude":"-46.985062","cidade":"Jaguariúna","latitude":"-22.70374","uf":"SP","color":"green","tecnologia":"GPON","name":"Jaguariúna, SP <br> GPON"},{"longitude":"-47.425572","cidade":"Piedade","latitude":"-23.713941","uf":"SP","color":"green","tecnologia":"GPON","name":"Piedade, SP <br> GPON"},{"longitude":"-47.248023","cidade":"Santa Cruz das Palmeiras","latitude":"-21.823475","uf":"SP","color":"green","tecnologia":"GPON","name":"Santa Cruz das Palmeiras, SP <br> GPON"},{"longitude":"-47.270344","cidade":"Tambaú","latitude":"-21.70292","uf":"SP","color":"green","tecnologia":"GPON","name":"Tambaú, SP <br> GPON"},{"longitude":"-48.204402","cidade":"Araguaína","latitude":"-7.192375","uf":"TO","color":"green","tecnologia":"GPON","name":"Araguaína, TO <br> GPON"},{"longitude":"-49.068046","cidade":"Gurupi","latitude":"-11.72794","uf":"TO","color":"green","tecnologia":"GPON","name":"Gurupi, TO <br> GPON"}]
