[{"tecnologia":"Sem serviço fixo","color":"black","name":"Acrelândia, AC <br> Sem serviço fixo","uf":"AC","latitude":"-9.825808","cidade":"Acrelândia","longitude":"-66.897166"},{"tecnologia":"Sem serviço fixo","color":"black","name":"Assis Brasil, AC <br> Sem serviço fixo","uf":"AC","latitude":"-10.929765","cidade":"Assis Brasil","longitude":"-69.573794"},{"tecnologia":"Sem serviço fixo","color":"black","name":"Brasiléia, AC <br> Sem serviço fixo","uf":"AC","latitude":"-10.994994","cidade":"Brasiléia","longitude":"-68.749696"},{"tecnologia":"Sem serviço fixo","color":"black","name":"Bujari, AC <br> Sem serviço fixo","uf":"AC","latitude":"-9.815277","cidade":"Bujari","longitude":"-67.955029"},{"tecnologia":"Sem serviço fixo","color":"black","name":"Capixaba, AC <br> Sem serviço fixo","uf":"AC","latitude":"-10.566031","cidade":"Capixaba","longitude":"-67.686006"},{"tecnologia":"Sem serviço fixo","color":"black","name":"Cruzeiro do Sul, AC <br> Sem serviço fixo","uf":"AC","latitude":"-7.627625","cidade":"Cruzeiro do Sul","longitude":"-72.675582"},{"tecnologia":"Sem serviço fixo","color":"black","name":"Epitaciolândia, AC <br> Sem serviço fixo","uf":"AC","latitude":"-11.018771","cidade":"Epitaciolândia","longitude":"-68.734109"},{"tecnologia":"Sem serviço fixo","color":"black","name":"Feijó, AC <br> Sem serviço fixo","uf":"AC","latitude":"-8.170536","cidade":"Feijó","longitude":"-70.350973"},{"tecnologia":"Sem serviço fixo","color":"black","name":"Jordão, AC <br> Sem serviço fixo","uf":"AC","latitude":"-9.430912","cidade":"Jordão","longitude":"-71.897391"},{"tecnologia":"Sem serviço fixo","color":"black","name":"Mâncio Lima, AC <br> Sem serviço fixo","uf":"AC","latitude":"-7.616575","cidade":"Mâncio Lima","longitude":"-72.899708"},{"tecnologia":"Sem serviço fixo","color":"black","name":"Manoel Urbano, AC <br> Sem serviço fixo","uf":"AC","latitude":"-8.832911","cidade":"Manoel Urbano","longitude":"-69.267862"},{"tecnologia":"Sem serviço fixo","color":"black","name":"Marechal Thaumaturgo, AC <br> Sem serviço fixo","uf":"AC","latitude":"-8.938983","cidade":"Marechal Thaumaturgo","longitude":"-72.799704"},{"tecnologia":"Sem serviço fixo","color":"black","name":"Plácido de Castro, AC <br> Sem serviço fixo","uf":"AC","latitude":"-10.28064","cidade":"Plácido de Castro","longitude":"-67.137133"},{"tecnologia":"Sem serviço fixo","color":"black","name":"Porto Acre, AC <br> Sem serviço fixo","uf":"AC","latitude":"-9.581378","cidade":"Porto Acre","longitude":"-67.547815"},{"tecnologia":"Sem serviço fixo","color":"black","name":"Porto Walter, AC <br> Sem serviço fixo","uf":"AC","latitude":"-8.263233","cidade":"Porto Walter","longitude":"-72.753747"},{"tecnologia":"Sem serviço fixo","color":"black","name":"Rio Branco, AC <br> Sem serviço fixo","uf":"AC","latitude":"-9.97499","cidade":"Rio Branco","longitude":"-67.824348"},{"tecnologia":"Sem serviço fixo","color":"black","name":"Rodrigues Alves, AC <br> Sem serviço fixo","uf":"AC","latitude":"-7.738638","cidade":"Rodrigues Alves","longitude":"-72.661015"},{"tecnologia":"Sem serviço fixo","color":"black","name":"Santa Rosa do Purus, AC <br> Sem serviço fixo","uf":"AC","latitude":"-9.446515","cidade":"Santa Rosa do Purus","longitude":"-70.49025"},{"tecnologia":"Sem serviço fixo","color":"black","name":"Sena Madureira, AC <br> Sem serviço fixo","uf":"AC","latitude":"-9.063499","cidade":"Sena Madureira","longitude":"-68.671278"},{"tecnologia":"Sem serviço fixo","color":"black","name":"Senador Guiomard, AC <br> Sem serviço fixo","uf":"AC","latitude":"-10.149686","cidade":"Senador Guiomard","longitude":"-67.736185"},{"tecnologia":"Sem serviço fixo","color":"black","name":"Tarauacá, AC <br> Sem serviço fixo","uf":"AC","latitude":"-8.156975","cidade":"Tarauacá","longitude":"-70.772154"},{"tecnologia":"Sem serviço fixo","color":"black","name":"Xapuri, AC <br> Sem serviço fixo","uf":"AC","latitude":"-10.651598","cidade":"Xapuri","longitude":"-68.496857"},{"tecnologia":"Sem serviço fixo","color":"black","name":"Água Branca, AL <br> Sem serviço fixo","uf":"AL","latitude":"-9.261996","cidade":"Água Branca","longitude":"-37.937988"},{"tecnologia":"Sem serviço fixo","color":"black","name":"Anadia, AL <br> Sem serviço fixo","uf":"AL","latitude":"-9.684886","cidade":"Anadia","longitude":"-36.307783"},{"tecnologia":"Sem serviço fixo","color":"black","name":"Atalaia, AL <br> Sem serviço fixo","uf":"AL","latitude":"-9.511898","cidade":"Atalaia","longitude":"-36.008552"},{"tecnologia":"Sem serviço fixo","color":"black","name":"Barra de Santo Antônio, AL <br> Sem serviço fixo","uf":"AL","latitude":"-9.402297","cidade":"Barra de Santo Antônio","longitude":"-35.510083"},{"tecnologia":"Sem serviço fixo","color":"black","name":"Barra de São Miguel, AL <br> Sem serviço fixo","uf":"AL","latitude":"-9.83842","cidade":"Barra de São Miguel","longitude":"-35.905667"},{"tecnologia":"Sem serviço fixo","color":"black","name":"Batalha, AL <br> Sem serviço fixo","uf":"AL","latitude":"-9.674195","cidade":"Batalha","longitude":"-37.133014"},{"tecnologia":"Sem serviço fixo","color":"black","name":"Belém, AL <br> Sem serviço fixo","uf":"AL","latitude":"-9.570472","cidade":"Belém","longitude":"-36.490399"},{"tecnologia":"Sem serviço fixo","color":"black","name":"Belo Monte, AL <br> Sem serviço fixo","uf":"AL","latitude":"-9.822718","cidade":"Belo Monte","longitude":"-37.277014"},{"tecnologia":"Sem serviço fixo","color":"black","name":"Boca da Mata, AL <br> Sem serviço fixo","uf":"AL","latitude":"-9.643082","cidade":"Boca da Mata","longitude":"-36.212498"},{"tecnologia":"Sem serviço fixo","color":"black","name":"Branquinha, AL <br> Sem serviço fixo","uf":"AL","latitude":"-9.23342","cidade":"Branquinha","longitude":"-36.016152"},{"tecnologia":"Sem serviço fixo","color":"black","name":"Cacimbinhas, AL <br> Sem serviço fixo","uf":"AL","latitude":"-9.401212","cidade":"Cacimbinhas","longitude":"-36.991082"},{"tecnologia":"Sem serviço fixo","color":"black","name":"Cajueiro, AL <br> Sem serviço fixo","uf":"AL","latitude":"-9.399402","cidade":"Cajueiro","longitude":"-36.155937"},{"tecnologia":"Sem serviço fixo","color":"black","name":"Campestre, AL <br> Sem serviço fixo","uf":"AL","latitude":"-8.847228","cidade":"Campestre","longitude":"-35.56847"},{"tecnologia":"Sem serviço fixo","color":"black","name":"Campo Alegre, AL <br> Sem serviço fixo","uf":"AL","latitude":"-9.784512","cidade":"Campo Alegre","longitude":"-36.352461"},{"tecnologia":"Sem serviço fixo","color":"black","name":"Canapi, AL <br> Sem serviço fixo","uf":"AL","latitude":"-9.119319","cidade":"Canapi","longitude":"-37.5967"},{"tecnologia":"Sem serviço fixo","color":"black","name":"Capela, AL <br> Sem serviço fixo","uf":"AL","latitude":"-9.415041","cidade":"Capela","longitude":"-36.082583"},{"tecnologia":"Sem serviço fixo","color":"black","name":"Carneiros, AL <br> Sem serviço fixo","uf":"AL","latitude":"-9.484762","cidade":"Carneiros","longitude":"-37.377303"},{"tecnologia":"Sem serviço fixo","color":"black","name":"Chã Preta, AL <br> Sem serviço fixo","uf":"AL","latitude":"-9.255605","cidade":"Chã Preta","longitude":"-36.298334"},{"tecnologia":"Sem serviço fixo","color":"black","name":"Coité do Nóia, AL <br> Sem serviço fixo","uf":"AL","latitude":"-9.633484","cidade":"Coité do Nóia","longitude":"-36.584493"},{"tecnologia":"Sem serviço fixo","color":"black","name":"Colônia Leopoldina, AL <br> Sem serviço fixo","uf":"AL","latitude":"-8.918058","cidade":"Colônia Leopoldina","longitude":"-35.721414"},{"tecnologia":"Sem serviço fixo","color":"black","name":"Coqueiro Seco, AL <br> Sem serviço fixo","uf":"AL","latitude":"-9.637147","cidade":"Coqueiro Seco","longitude":"-35.799377"},{"tecnologia":"Sem serviço fixo","color":"black","name":"Coruripe, AL <br> Sem serviço fixo","uf":"AL","latitude":"-10.127632","cidade":"Coruripe","longitude":"-36.171724"},{"tecnologia":"Sem serviço fixo","color":"black","name":"Craíbas, AL <br> Sem serviço fixo","uf":"AL","latitude":"-9.617798","cidade":"Craíbas","longitude":"-36.769726"},{"tecnologia":"Sem serviço fixo","color":"black","name":"Delmiro Gouveia, AL <br> Sem serviço fixo","uf":"AL","latitude":"-9.385336","cidade":"Delmiro Gouveia","longitude":"-37.998676"},{"tecnologia":"Sem serviço fixo","color":"black","name":"Dois Riachos, AL <br> Sem serviço fixo","uf":"AL","latitude":"-9.384645","cidade":"Dois Riachos","longitude":"-37.096502"},{"tecnologia":"Sem serviço fixo","color":"black","name":"Estrela de Alagoas, AL <br> Sem serviço fixo","uf":"AL","latitude":"-9.390894","cidade":"Estrela de Alagoas","longitude":"-36.764407"},{"tecnologia":"Sem serviço fixo","color":"black","name":"Feira Grande, AL <br> Sem serviço fixo","uf":"AL","latitude":"-9.898586","cidade":"Feira Grande","longitude":"-36.681521"},{"tecnologia":"Sem serviço fixo","color":"black","name":"Feliz Deserto, AL <br> Sem serviço fixo","uf":"AL","latitude":"-10.293491","cidade":"Feliz Deserto","longitude":"-36.302788"},{"tecnologia":"Sem serviço fixo","color":"black","name":"Flexeiras, AL <br> Sem serviço fixo","uf":"AL","latitude":"-9.272807","cidade":"Flexeiras","longitude":"-35.713933"},{"tecnologia":"Sem serviço fixo","color":"black","name":"Girau do Ponciano, AL <br> Sem serviço fixo","uf":"AL","latitude":"-9.884041","cidade":"Girau do Ponciano","longitude":"-36.831592"},{"tecnologia":"Sem serviço fixo","color":"black","name":"Ibateguara, AL <br> Sem serviço fixo","uf":"AL","latitude":"-8.978232","cidade":"Ibateguara","longitude":"-35.937325"},{"tecnologia":"Sem serviço fixo","color":"black","name":"Igaci, AL <br> Sem serviço fixo","uf":"AL","latitude":"-9.537678","cidade":"Igaci","longitude":"-36.637191"},{"tecnologia":"Sem serviço fixo","color":"black","name":"Igreja Nova, AL <br> Sem serviço fixo","uf":"AL","latitude":"-10.123463","cidade":"Igreja Nova","longitude":"-36.659705"},{"tecnologia":"Sem serviço fixo","color":"black","name":"Inhapi, AL <br> Sem serviço fixo","uf":"AL","latitude":"-9.225936","cidade":"Inhapi","longitude":"-37.750871"},{"tecnologia":"Sem serviço fixo","color":"black","name":"Jacaré Dos Homens, AL <br> Sem serviço fixo","uf":"AL","latitude":"-9.635446","cidade":"Jacaré Dos Homens","longitude":"-37.207636"},{"tecnologia":"Sem serviço fixo","color":"black","name":"Jacuípe, AL <br> Sem serviço fixo","uf":"AL","latitude":"-8.83951","cidade":"Jacuípe","longitude":"-35.459074"},{"tecnologia":"Sem serviço fixo","color":"black","name":"Japaratinga, AL <br> Sem serviço fixo","uf":"AL","latitude":"-9.087464","cidade":"Japaratinga","longitude":"-35.263403"},{"tecnologia":"Sem serviço fixo","color":"black","name":"Jaramataia, AL <br> Sem serviço fixo","uf":"AL","latitude":"-9.662243","cidade":"Jaramataia","longitude":"-37.004558"},{"tecnologia":"Sem serviço fixo","color":"black","name":"Joaquim Gomes, AL <br> Sem serviço fixo","uf":"AL","latitude":"-9.132805","cidade":"Joaquim Gomes","longitude":"-35.747381"},{"tecnologia":"Sem serviço fixo","color":"black","name":"Jundiá, AL <br> Sem serviço fixo","uf":"AL","latitude":"-8.932968","cidade":"Jundiá","longitude":"-35.566925"},{"tecnologia":"Sem serviço fixo","color":"black","name":"Junqueiro, AL <br> Sem serviço fixo","uf":"AL","latitude":"-9.906961","cidade":"Junqueiro","longitude":"-36.480346"},{"tecnologia":"Sem serviço fixo","color":"black","name":"Lagoa da Canoa, AL <br> Sem serviço fixo","uf":"AL","latitude":"-9.832909","cidade":"Lagoa da Canoa","longitude":"-36.741257"},{"tecnologia":"Sem serviço fixo","color":"black","name":"Limoeiro de Anadia, AL <br> Sem serviço fixo","uf":"AL","latitude":"-9.740983","cidade":"Limoeiro de Anadia","longitude":"-36.512097"},{"tecnologia":"Sem serviço fixo","color":"black","name":"Maceió, AL <br> Sem serviço fixo","uf":"AL","latitude":"-9.665985","cidade":"Maceió","longitude":"-35.73496"},{"tecnologia":"Sem serviço fixo","color":"black","name":"Major Isidoro, AL <br> Sem serviço fixo","uf":"AL","latitude":"-9.530086","cidade":"Major Isidoro","longitude":"-36.992006"},{"tecnologia":"Sem serviço fixo","color":"black","name":"Mar Vermelho, AL <br> Sem serviço fixo","uf":"AL","latitude":"-9.447393","cidade":"Mar Vermelho","longitude":"-36.388076"},{"tecnologia":"Sem serviço fixo","color":"black","name":"Maragogi, AL <br> Sem serviço fixo","uf":"AL","latitude":"-9.007443","cidade":"Maragogi","longitude":"-35.226692"},{"tecnologia":"Sem serviço fixo","color":"black","name":"Maravilha, AL <br> Sem serviço fixo","uf":"AL","latitude":"-9.230449","cidade":"Maravilha","longitude":"-37.352419"},{"tecnologia":"Sem serviço fixo","color":"black","name":"Marechal Deodoro, AL <br> Sem serviço fixo","uf":"AL","latitude":"-9.709715","cidade":"Marechal Deodoro","longitude":"-35.896731"},{"tecnologia":"Sem serviço fixo","color":"black","name":"Maribondo, AL <br> Sem serviço fixo","uf":"AL","latitude":"-9.583528","cidade":"Maribondo","longitude":"-36.304488"},{"tecnologia":"Sem serviço fixo","color":"black","name":"Mata Grande, AL <br> Sem serviço fixo","uf":"AL","latitude":"-9.118243","cidade":"Mata Grande","longitude":"-37.732298"},{"tecnologia":"Sem serviço fixo","color":"black","name":"Matriz de Camaragibe, AL <br> Sem serviço fixo","uf":"AL","latitude":"-9.154373","cidade":"Matriz de Camaragibe","longitude":"-35.524302"},{"tecnologia":"Sem serviço fixo","color":"black","name":"Messias, AL <br> Sem serviço fixo","uf":"AL","latitude":"-9.393843","cidade":"Messias","longitude":"-35.839182"},{"tecnologia":"Sem serviço fixo","color":"black","name":"Minador do Negrão, AL <br> Sem serviço fixo","uf":"AL","latitude":"-9.312358","cidade":"Minador do Negrão","longitude":"-36.869553"},{"tecnologia":"Sem serviço fixo","color":"black","name":"Monteirópolis, AL <br> Sem serviço fixo","uf":"AL","latitude":"-9.603569","cidade":"Monteirópolis","longitude":"-37.250463"},{"tecnologia":"Sem serviço fixo","color":"black","name":"Murici, AL <br> Sem serviço fixo","uf":"AL","latitude":"-9.306823","cidade":"Murici","longitude":"-35.942798"},{"tecnologia":"Sem serviço fixo","color":"black","name":"Novo Lino, AL <br> Sem serviço fixo","uf":"AL","latitude":"-8.941905","cidade":"Novo Lino","longitude":"-35.664001"},{"tecnologia":"Sem serviço fixo","color":"black","name":"Olivença, AL <br> Sem serviço fixo","uf":"AL","latitude":"-9.519538","cidade":"Olivença","longitude":"-37.195441"},{"tecnologia":"Sem serviço fixo","color":"black","name":"Ouro Branco, AL <br> Sem serviço fixo","uf":"AL","latitude":"-9.158842","cidade":"Ouro Branco","longitude":"-37.355639"},{"tecnologia":"Sem serviço fixo","color":"black","name":"Palestina, AL <br> Sem serviço fixo","uf":"AL","latitude":"-9.674928","cidade":"Palestina","longitude":"-37.339037"},{"tecnologia":"Sem serviço fixo","color":"black","name":"Palmeira Dos Índios, AL <br> Sem serviço fixo","uf":"AL","latitude":"-9.405681","cidade":"Palmeira Dos Índios","longitude":"-36.632812"},{"tecnologia":"Sem serviço fixo","color":"black","name":"Pão de Açúcar, AL <br> Sem serviço fixo","uf":"AL","latitude":"-9.740325","cidade":"Pão de Açúcar","longitude":"-37.440336"},{"tecnologia":"Sem serviço fixo","color":"black","name":"Pariconha, AL <br> Sem serviço fixo","uf":"AL","latitude":"-9.256342","cidade":"Pariconha","longitude":"-37.998751"},{"tecnologia":"Sem serviço fixo","color":"black","name":"Paripueira, AL <br> Sem serviço fixo","uf":"AL","latitude":"-9.463133","cidade":"Paripueira","longitude":"-35.551977"},{"tecnologia":"Sem serviço fixo","color":"black","name":"Passo de Camaragibe, AL <br> Sem serviço fixo","uf":"AL","latitude":"-9.24511","cidade":"Passo de Camaragibe","longitude":"-35.47449"},{"tecnologia":"Sem serviço fixo","color":"black","name":"Paulo Jacinto, AL <br> Sem serviço fixo","uf":"AL","latitude":"-9.367918","cidade":"Paulo Jacinto","longitude":"-36.367241"},{"tecnologia":"Sem serviço fixo","color":"black","name":"Penedo, AL <br> Sem serviço fixo","uf":"AL","latitude":"-10.287422","cidade":"Penedo","longitude":"-36.581905"},{"tecnologia":"Sem serviço fixo","color":"black","name":"Piaçabuçu, AL <br> Sem serviço fixo","uf":"AL","latitude":"-10.405989","cidade":"Piaçabuçu","longitude":"-36.433968"},{"tecnologia":"Sem serviço fixo","color":"black","name":"Pilar, AL <br> Sem serviço fixo","uf":"AL","latitude":"-9.601348","cidade":"Pilar","longitude":"-35.954294"},{"tecnologia":"Sem serviço fixo","color":"black","name":"Pindoba, AL <br> Sem serviço fixo","uf":"AL","latitude":"-9.473822","cidade":"Pindoba","longitude":"-36.291829"},{"tecnologia":"Sem serviço fixo","color":"black","name":"Piranhas, AL <br> Sem serviço fixo","uf":"AL","latitude":"-9.623996","cidade":"Piranhas","longitude":"-37.756987"},{"tecnologia":"Sem serviço fixo","color":"black","name":"Poço Das Trincheiras, AL <br> Sem serviço fixo","uf":"AL","latitude":"-9.307417","cidade":"Poço Das Trincheiras","longitude":"-37.288932"},{"tecnologia":"Sem serviço fixo","color":"black","name":"Porto Calvo, AL <br> Sem serviço fixo","uf":"AL","latitude":"-9.051948","cidade":"Porto Calvo","longitude":"-35.398653"},{"tecnologia":"Sem serviço fixo","color":"black","name":"Porto de Pedras, AL <br> Sem serviço fixo","uf":"AL","latitude":"-9.160065","cidade":"Porto de Pedras","longitude":"-35.304914"},{"tecnologia":"Sem serviço fixo","color":"black","name":"Porto Real do Colégio, AL <br> Sem serviço fixo","uf":"AL","latitude":"-10.18489","cidade":"Porto Real do Colégio","longitude":"-36.837551"},{"tecnologia":"Sem serviço fixo","color":"black","name":"Quebrangulo, AL <br> Sem serviço fixo","uf":"AL","latitude":"-9.32001","cidade":"Quebrangulo","longitude":"-36.469239"},{"tecnologia":"Sem serviço fixo","color":"black","name":"Rio Largo, AL <br> Sem serviço fixo","uf":"AL","latitude":"-9.477829","cidade":"Rio Largo","longitude":"-35.839435"},{"tecnologia":"Sem serviço fixo","color":"black","name":"Roteiro, AL <br> Sem serviço fixo","uf":"AL","latitude":"-9.835029","cidade":"Roteiro","longitude":"-35.978247"},{"tecnologia":"Sem serviço fixo","color":"black","name":"Santa Luzia do Norte, AL <br> Sem serviço fixo","uf":"AL","latitude":"-9.6037","cidade":"Santa Luzia do Norte","longitude":"-35.823196"},{"tecnologia":"Sem serviço fixo","color":"black","name":"Santana do Ipanema, AL <br> Sem serviço fixo","uf":"AL","latitude":"-9.369989","cidade":"Santana do Ipanema","longitude":"-37.248018"},{"tecnologia":"Sem serviço fixo","color":"black","name":"Santana do Mundaú, AL <br> Sem serviço fixo","uf":"AL","latitude":"-9.171413","cidade":"Santana do Mundaú","longitude":"-36.217608"},{"tecnologia":"Sem serviço fixo","color":"black","name":"São Brás, AL <br> Sem serviço fixo","uf":"AL","latitude":"-10.120734","cidade":"São Brás","longitude":"-36.896529"},{"tecnologia":"Sem serviço fixo","color":"black","name":"São José da Laje, AL <br> Sem serviço fixo","uf":"AL","latitude":"-9.012779","cidade":"São José da Laje","longitude":"-36.051489"},{"tecnologia":"Sem serviço fixo","color":"black","name":"São José da Tapera, AL <br> Sem serviço fixo","uf":"AL","latitude":"-9.557684","cidade":"São José da Tapera","longitude":"-37.383125"},{"tecnologia":"Sem serviço fixo","color":"black","name":"São Luís do Quitunde, AL <br> Sem serviço fixo","uf":"AL","latitude":"-9.31816","cidade":"São Luís do Quitunde","longitude":"-35.560553"},{"tecnologia":"Sem serviço fixo","color":"black","name":"São Miguel Dos Campos, AL <br> Sem serviço fixo","uf":"AL","latitude":"-9.78301","cidade":"São Miguel Dos Campos","longitude":"-36.097142"},{"tecnologia":"Sem serviço fixo","color":"black","name":"São Miguel Dos Milagres, AL <br> Sem serviço fixo","uf":"AL","latitude":"-9.264925","cidade":"São Miguel Dos Milagres","longitude":"-35.376253"},{"tecnologia":"Sem serviço fixo","color":"black","name":"São Sebastião, AL <br> Sem serviço fixo","uf":"AL","latitude":"-9.930434","cidade":"São Sebastião","longitude":"-36.558967"},{"tecnologia":"Sem serviço fixo","color":"black","name":"Satuba, AL <br> Sem serviço fixo","uf":"AL","latitude":"-9.569113","cidade":"Satuba","longitude":"-35.822697"},{"tecnologia":"Sem serviço fixo","color":"black","name":"Senador Rui Palmeira, AL <br> Sem serviço fixo","uf":"AL","latitude":"-9.469865","cidade":"Senador Rui Palmeira","longitude":"-37.457606"},{"tecnologia":"Sem serviço fixo","color":"black","name":"Taquarana, AL <br> Sem serviço fixo","uf":"AL","latitude":"-9.64529","cidade":"Taquarana","longitude":"-36.492844"},{"tecnologia":"Sem serviço fixo","color":"black","name":"Teotônio Vilela, AL <br> Sem serviço fixo","uf":"AL","latitude":"-9.916562","cidade":"Teotônio Vilela","longitude":"-36.349212"},{"tecnologia":"Sem serviço fixo","color":"black","name":"Traipu, AL <br> Sem serviço fixo","uf":"AL","latitude":"-9.962625","cidade":"Traipu","longitude":"-37.007119"},{"tecnologia":"Sem serviço fixo","color":"black","name":"União Dos Palmares, AL <br> Sem serviço fixo","uf":"AL","latitude":"-9.15921","cidade":"União Dos Palmares","longitude":"-36.02227"},{"tecnologia":"Sem serviço fixo","color":"black","name":"Viçosa, AL <br> Sem serviço fixo","uf":"AL","latitude":"-9.367631","cidade":"Viçosa","longitude":"-36.243107"},{"tecnologia":"Sem serviço fixo","color":"black","name":"Alvarães, AM <br> Sem serviço fixo","uf":"AM","latitude":"-3.22727","cidade":"Alvarães","longitude":"-64.800654"},{"tecnologia":"Sem serviço fixo","color":"black","name":"Amaturá, AM <br> Sem serviço fixo","uf":"AM","latitude":"-3.374547","cidade":"Amaturá","longitude":"-68.200456"},{"tecnologia":"Sem serviço fixo","color":"black","name":"Anamã, AM <br> Sem serviço fixo","uf":"AM","latitude":"-3.566966","cidade":"Anamã","longitude":"-61.396337"},{"tecnologia":"Sem serviço fixo","color":"black","name":"Anori, AM <br> Sem serviço fixo","uf":"AM","latitude":"-3.746027","cidade":"Anori","longitude":"-61.657485"},{"tecnologia":"Sem serviço fixo","color":"black","name":"Apuí, AM <br> Sem serviço fixo","uf":"AM","latitude":"-7.194091","cidade":"Apuí","longitude":"-59.895956"},{"tecnologia":"Sem serviço fixo","color":"black","name":"Atalaia do Norte, AM <br> Sem serviço fixo","uf":"AM","latitude":"-4.370551","cidade":"Atalaia do Norte","longitude":"-70.1967"},{"tecnologia":"Sem serviço fixo","color":"black","name":"Autazes, AM <br> Sem serviço fixo","uf":"AM","latitude":"-3.585743","cidade":"Autazes","longitude":"-59.125589"},{"tecnologia":"Sem serviço fixo","color":"black","name":"Barcelos, AM <br> Sem serviço fixo","uf":"AM","latitude":"-0.983373","cidade":"Barcelos","longitude":"-62.931053"},{"tecnologia":"Sem serviço fixo","color":"black","name":"Barreirinha, AM <br> Sem serviço fixo","uf":"AM","latitude":"-2.798863","cidade":"Barreirinha","longitude":"-57.067897"},{"tecnologia":"Sem serviço fixo","color":"black","name":"Benjamin Constant, AM <br> Sem serviço fixo","uf":"AM","latitude":"-4.37768","cidade":"Benjamin Constant","longitude":"-70.034157"},{"tecnologia":"Sem serviço fixo","color":"black","name":"Beruri, AM <br> Sem serviço fixo","uf":"AM","latitude":"-3.898736","cidade":"Beruri","longitude":"-61.36162"},{"tecnologia":"Sem serviço fixo","color":"black","name":"Boa Vista do Ramos, AM <br> Sem serviço fixo","uf":"AM","latitude":"-2.974087","cidade":"Boa Vista do Ramos","longitude":"-57.587333"},{"tecnologia":"Sem serviço fixo","color":"black","name":"Boca do Acre, AM <br> Sem serviço fixo","uf":"AM","latitude":"-8.742322","cidade":"Boca do Acre","longitude":"-67.391926"},{"tecnologia":"Sem serviço fixo","color":"black","name":"Borba, AM <br> Sem serviço fixo","uf":"AM","latitude":"-4.391539","cidade":"Borba","longitude":"-59.58738"},{"tecnologia":"Sem serviço fixo","color":"black","name":"Caapiranga, AM <br> Sem serviço fixo","uf":"AM","latitude":"-3.315372","cidade":"Caapiranga","longitude":"-61.220557"},{"tecnologia":"Sem serviço fixo","color":"black","name":"Canutama, AM <br> Sem serviço fixo","uf":"AM","latitude":"-6.52582","cidade":"Canutama","longitude":"-64.39528"},{"tecnologia":"Sem serviço fixo","color":"black","name":"Carauari, AM <br> Sem serviço fixo","uf":"AM","latitude":"-4.881605","cidade":"Carauari","longitude":"-66.908559"},{"tecnologia":"Sem serviço fixo","color":"black","name":"Careiro da Várzea, AM <br> Sem serviço fixo","uf":"AM","latitude":"-3.196979","cidade":"Careiro da Várzea","longitude":"-59.79639"},{"tecnologia":"Sem serviço fixo","color":"black","name":"Careiro, AM <br> Sem serviço fixo","uf":"AM","latitude":"-3.768027","cidade":"Careiro","longitude":"-60.369046"},{"tecnologia":"Sem serviço fixo","color":"black","name":"Coari, AM <br> Sem serviço fixo","uf":"AM","latitude":"-4.094121","cidade":"Coari","longitude":"-63.144091"},{"tecnologia":"Sem serviço fixo","color":"black","name":"Codajás, AM <br> Sem serviço fixo","uf":"AM","latitude":"-3.830528","cidade":"Codajás","longitude":"-62.065787"},{"tecnologia":"Sem serviço fixo","color":"black","name":"Eirunepé, AM <br> Sem serviço fixo","uf":"AM","latitude":"-6.656767","cidade":"Eirunepé","longitude":"-69.86616"},{"tecnologia":"Sem serviço fixo","color":"black","name":"Envira, AM <br> Sem serviço fixo","uf":"AM","latitude":"-7.437889","cidade":"Envira","longitude":"-70.028143"},{"tecnologia":"Sem serviço fixo","color":"black","name":"Fonte Boa, AM <br> Sem serviço fixo","uf":"AM","latitude":"-2.523424","cidade":"Fonte Boa","longitude":"-66.094212"},{"tecnologia":"Sem serviço fixo","color":"black","name":"Guajará, AM <br> Sem serviço fixo","uf":"AM","latitude":"-7.537971","cidade":"Guajará","longitude":"-72.590713"},{"tecnologia":"Sem serviço fixo","color":"black","name":"Humaitá, AM <br> Sem serviço fixo","uf":"AM","latitude":"-7.511712","cidade":"Humaitá","longitude":"-63.032743"},{"tecnologia":"Sem serviço fixo","color":"black","name":"Ipixuna, AM <br> Sem serviço fixo","uf":"AM","latitude":"-7.047909","cidade":"Ipixuna","longitude":"-71.693426"},{"tecnologia":"Sem serviço fixo","color":"black","name":"Iranduba, AM <br> Sem serviço fixo","uf":"AM","latitude":"-3.274792","cidade":"Iranduba","longitude":"-60.189953"},{"tecnologia":"Sem serviço fixo","color":"black","name":"Itacoatiara, AM <br> Sem serviço fixo","uf":"AM","latitude":"-3.138607","cidade":"Itacoatiara","longitude":"-58.444874"},{"tecnologia":"Sem serviço fixo","color":"black","name":"Itamarati, AM <br> Sem serviço fixo","uf":"AM","latitude":"-6.424591","cidade":"Itamarati","longitude":"-68.260027"},{"tecnologia":"Sem serviço fixo","color":"black","name":"Itapiranga, AM <br> Sem serviço fixo","uf":"AM","latitude":"-2.74081","cidade":"Itapiranga","longitude":"-58.029257"},{"tecnologia":"Sem serviço fixo","color":"black","name":"Japurá, AM <br> Sem serviço fixo","uf":"AM","latitude":"-1.882366","cidade":"Japurá","longitude":"-66.929051"},{"tecnologia":"Sem serviço fixo","color":"black","name":"Juruá, AM <br> Sem serviço fixo","uf":"AM","latitude":"-3.484384","cidade":"Juruá","longitude":"-66.071795"},{"tecnologia":"Sem serviço fixo","color":"black","name":"Jutaí, AM <br> Sem serviço fixo","uf":"AM","latitude":"-2.758144","cidade":"Jutaí","longitude":"-66.75947"},{"tecnologia":"Sem serviço fixo","color":"black","name":"Lábrea, AM <br> Sem serviço fixo","uf":"AM","latitude":"-7.264133","cidade":"Lábrea","longitude":"-64.794765"},{"tecnologia":"Sem serviço fixo","color":"black","name":"Manacapuru, AM <br> Sem serviço fixo","uf":"AM","latitude":"-3.290657","cidade":"Manacapuru","longitude":"-60.621581"},{"tecnologia":"Sem serviço fixo","color":"black","name":"Manaquiri, AM <br> Sem serviço fixo","uf":"AM","latitude":"-3.440784","cidade":"Manaquiri","longitude":"-60.461239"},{"tecnologia":"Sem serviço fixo","color":"black","name":"Manaus, AM <br> Sem serviço fixo","uf":"AM","latitude":"-3.118662","cidade":"Manaus","longitude":"-60.02123"},{"tecnologia":"Sem serviço fixo","color":"black","name":"Manicoré, AM <br> Sem serviço fixo","uf":"AM","latitude":"-5.804618","cidade":"Manicoré","longitude":"-61.289483"},{"tecnologia":"Sem serviço fixo","color":"black","name":"Maraã, AM <br> Sem serviço fixo","uf":"AM","latitude":"-1.853129","cidade":"Maraã","longitude":"-65.572995"},{"tecnologia":"Sem serviço fixo","color":"black","name":"Maués, AM <br> Sem serviço fixo","uf":"AM","latitude":"-3.392891","cidade":"Maués","longitude":"-57.706731"},{"tecnologia":"Sem serviço fixo","color":"black","name":"Nhamundá, AM <br> Sem serviço fixo","uf":"AM","latitude":"-2.207932","cidade":"Nhamundá","longitude":"-56.711151"},{"tecnologia":"Sem serviço fixo","color":"black","name":"Nova Olinda do Norte, AM <br> Sem serviço fixo","uf":"AM","latitude":"-3.900367","cidade":"Nova Olinda do Norte","longitude":"-59.09404"},{"tecnologia":"Sem serviço fixo","color":"black","name":"Novo Airão, AM <br> Sem serviço fixo","uf":"AM","latitude":"-2.636371","cidade":"Novo Airão","longitude":"-60.943404"},{"tecnologia":"Sem serviço fixo","color":"black","name":"Novo Aripuanã, AM <br> Sem serviço fixo","uf":"AM","latitude":"-5.125929","cidade":"Novo Aripuanã","longitude":"-60.373179"},{"tecnologia":"Sem serviço fixo","color":"black","name":"Parintins, AM <br> Sem serviço fixo","uf":"AM","latitude":"-2.637412","cidade":"Parintins","longitude":"-56.729045"},{"tecnologia":"Sem serviço fixo","color":"black","name":"Pauini, AM <br> Sem serviço fixo","uf":"AM","latitude":"-7.713109","cidade":"Pauini","longitude":"-66.992039"},{"tecnologia":"Sem serviço fixo","color":"black","name":"Presidente Figueiredo, AM <br> Sem serviço fixo","uf":"AM","latitude":"-2.029813","cidade":"Presidente Figueiredo","longitude":"-60.02338"},{"tecnologia":"Sem serviço fixo","color":"black","name":"Rio Preto da Eva, AM <br> Sem serviço fixo","uf":"AM","latitude":"-2.704497","cidade":"Rio Preto da Eva","longitude":"-59.685793"},{"tecnologia":"Sem serviço fixo","color":"black","name":"Santa Isabel do Rio Negro, AM <br> Sem serviço fixo","uf":"AM","latitude":"-0.410824","cidade":"Santa Isabel do Rio Negro","longitude":"-65.009205"},{"tecnologia":"Sem serviço fixo","color":"black","name":"Santo Antônio do Içá, AM <br> Sem serviço fixo","uf":"AM","latitude":"-3.095443","cidade":"Santo Antônio do Içá","longitude":"-67.946279"},{"tecnologia":"Sem serviço fixo","color":"black","name":"São Gabriel da Cachoeira, AM <br> Sem serviço fixo","uf":"AM","latitude":"-0.11909","cidade":"São Gabriel da Cachoeira","longitude":"-67.084042"},{"tecnologia":"Sem serviço fixo","color":"black","name":"São Paulo de Olivença, AM <br> Sem serviço fixo","uf":"AM","latitude":"-3.472919","cidade":"São Paulo de Olivença","longitude":"-68.964581"},{"tecnologia":"Sem serviço fixo","color":"black","name":"São Sebastião do Uatumã, AM <br> Sem serviço fixo","uf":"AM","latitude":"-2.559147","cidade":"São Sebastião do Uatumã","longitude":"-57.873049"},{"tecnologia":"Sem serviço fixo","color":"black","name":"Silves, AM <br> Sem serviço fixo","uf":"AM","latitude":"-2.81748","cidade":"Silves","longitude":"-58.248031"},{"tecnologia":"Sem serviço fixo","color":"black","name":"Tabatinga, AM <br> Sem serviço fixo","uf":"AM","latitude":"-4.241597","cidade":"Tabatinga","longitude":"-69.938273"},{"tecnologia":"Sem serviço fixo","color":"black","name":"Tapauá, AM <br> Sem serviço fixo","uf":"AM","latitude":"-5.620855","cidade":"Tapauá","longitude":"-63.1808"},{"tecnologia":"Sem serviço fixo","color":"black","name":"Tefé, AM <br> Sem serviço fixo","uf":"AM","latitude":"-3.368219","cidade":"Tefé","longitude":"-64.719343"},{"tecnologia":"Sem serviço fixo","color":"black","name":"Tonantins, AM <br> Sem serviço fixo","uf":"AM","latitude":"-2.865825","cidade":"Tonantins","longitude":"-67.791904"},{"tecnologia":"Sem serviço fixo","color":"black","name":"Uarini, AM <br> Sem serviço fixo","uf":"AM","latitude":"-2.996087","cidade":"Uarini","longitude":"-65.113298"},{"tecnologia":"Sem serviço fixo","color":"black","name":"Urucará, AM <br> Sem serviço fixo","uf":"AM","latitude":"-2.529364","cidade":"Urucará","longitude":"-57.753797"},{"tecnologia":"Sem serviço fixo","color":"black","name":"Urucurituba, AM <br> Sem serviço fixo","uf":"AM","latitude":"-3.128412","cidade":"Urucurituba","longitude":"-58.149637"},{"tecnologia":"Sem serviço fixo","color":"black","name":"Amapá, AP <br> Sem serviço fixo","uf":"AP","latitude":"2.052669","cidade":"Amapá","longitude":"-50.795653"},{"tecnologia":"Sem serviço fixo","color":"black","name":"Calçoene, AP <br> Sem serviço fixo","uf":"AP","latitude":"2.504747","cidade":"Calçoene","longitude":"-50.951233"},{"tecnologia":"Sem serviço fixo","color":"black","name":"Cutias, AP <br> Sem serviço fixo","uf":"AP","latitude":"0.987565","cidade":"Cutias","longitude":"-50.799169"},{"tecnologia":"Sem serviço fixo","color":"black","name":"Ferreira Gomes, AP <br> Sem serviço fixo","uf":"AP","latitude":"0.857256","cidade":"Ferreira Gomes","longitude":"-51.179523"},{"tecnologia":"Sem serviço fixo","color":"black","name":"Itaubal, AP <br> Sem serviço fixo","uf":"AP","latitude":"0.596137","cidade":"Itaubal","longitude":"-50.670828"},{"tecnologia":"Sem serviço fixo","color":"black","name":"Laranjal do Jari, AP <br> Sem serviço fixo","uf":"AP","latitude":"-0.804911","cidade":"Laranjal do Jari","longitude":"-52.452962"},{"tecnologia":"Sem serviço fixo","color":"black","name":"Macapá, AP <br> Sem serviço fixo","uf":"AP","latitude":"0.034934","cidade":"Macapá","longitude":"-51.069395"},{"tecnologia":"Sem serviço fixo","color":"black","name":"Mazagão, AP <br> Sem serviço fixo","uf":"AP","latitude":"-0.11336","cidade":"Mazagão","longitude":"-51.28913"},{"tecnologia":"Sem serviço fixo","color":"black","name":"Oiapoque, AP <br> Sem serviço fixo","uf":"AP","latitude":"3.84074","cidade":"Oiapoque","longitude":"-51.833123"},{"tecnologia":"Sem serviço fixo","color":"black","name":"Porto Grande, AP <br> Sem serviço fixo","uf":"AP","latitude":"0.71243","cidade":"Porto Grande","longitude":"-51.415499"},{"tecnologia":"Sem serviço fixo","color":"black","name":"Pracuúba, AP <br> Sem serviço fixo","uf":"AP","latitude":"1.745427","cidade":"Pracuúba","longitude":"-50.789248"},{"tecnologia":"Sem serviço fixo","color":"black","name":"Santana, AP <br> Sem serviço fixo","uf":"AP","latitude":"-0.045434","cidade":"Santana","longitude":"-51.172924"},{"tecnologia":"Sem serviço fixo","color":"black","name":"Serra do Navio, AP <br> Sem serviço fixo","uf":"AP","latitude":"0.901357","cidade":"Serra do Navio","longitude":"-52.003636"},{"tecnologia":"Sem serviço fixo","color":"black","name":"Tartarugalzinho, AP <br> Sem serviço fixo","uf":"AP","latitude":"1.506519","cidade":"Tartarugalzinho","longitude":"-50.90874"},{"tecnologia":"Sem serviço fixo","color":"black","name":"Vitória do Jari, AP <br> Sem serviço fixo","uf":"AP","latitude":"-0.938","cidade":"Vitória do Jari","longitude":"-52.424001"},{"tecnologia":"Sem serviço fixo","color":"black","name":"Abaíra, BA <br> Sem serviço fixo","uf":"BA","latitude":"-13.24883","cidade":"Abaíra","longitude":"-41.661869"},{"tecnologia":"Sem serviço fixo","color":"black","name":"Abaré, BA <br> Sem serviço fixo","uf":"BA","latitude":"-8.720734","cidade":"Abaré","longitude":"-39.116178"},{"tecnologia":"Sem serviço fixo","color":"black","name":"Acajutiba, BA <br> Sem serviço fixo","uf":"BA","latitude":"-11.657522","cidade":"Acajutiba","longitude":"-38.019737"},{"tecnologia":"Sem serviço fixo","color":"black","name":"Adustina, BA <br> Sem serviço fixo","uf":"BA","latitude":"-10.54369","cidade":"Adustina","longitude":"-38.111265"},{"tecnologia":"Sem serviço fixo","color":"black","name":"Água Fria, BA <br> Sem serviço fixo","uf":"BA","latitude":"-11.861836","cidade":"Água Fria","longitude":"-38.763863"},{"tecnologia":"Sem serviço fixo","color":"black","name":"Aiquara, BA <br> Sem serviço fixo","uf":"BA","latitude":"-14.126918","cidade":"Aiquara","longitude":"-39.893653"},{"tecnologia":"Sem serviço fixo","color":"black","name":"Alagoinhas, BA <br> Sem serviço fixo","uf":"BA","latitude":"-12.133526","cidade":"Alagoinhas","longitude":"-38.420772"},{"tecnologia":"Sem serviço fixo","color":"black","name":"Alcobaça, BA <br> Sem serviço fixo","uf":"BA","latitude":"-17.519468","cidade":"Alcobaça","longitude":"-39.203609"},{"tecnologia":"Sem serviço fixo","color":"black","name":"Almadina, BA <br> Sem serviço fixo","uf":"BA","latitude":"-14.708869","cidade":"Almadina","longitude":"-39.641491"},{"tecnologia":"Sem serviço fixo","color":"black","name":"Amargosa, BA <br> Sem serviço fixo","uf":"BA","latitude":"-13.021462","cidade":"Amargosa","longitude":"-39.601966"},{"tecnologia":"Sem serviço fixo","color":"black","name":"Amélia Rodrigues, BA <br> Sem serviço fixo","uf":"BA","latitude":"-12.391429","cidade":"Amélia Rodrigues","longitude":"-38.756289"},{"tecnologia":"Sem serviço fixo","color":"black","name":"América Dourada, BA <br> Sem serviço fixo","uf":"BA","latitude":"-11.442938","cidade":"América Dourada","longitude":"-41.439007"},{"tecnologia":"Sem serviço fixo","color":"black","name":"Anagé, BA <br> Sem serviço fixo","uf":"BA","latitude":"-14.61512","cidade":"Anagé","longitude":"-41.135569"},{"tecnologia":"Sem serviço fixo","color":"black","name":"Andaraí, BA <br> Sem serviço fixo","uf":"BA","latitude":"-12.804916","cidade":"Andaraí","longitude":"-41.329658"},{"tecnologia":"Sem serviço fixo","color":"black","name":"Andorinha, BA <br> Sem serviço fixo","uf":"BA","latitude":"-10.348214","cidade":"Andorinha","longitude":"-39.839142"},{"tecnologia":"Sem serviço fixo","color":"black","name":"Angical, BA <br> Sem serviço fixo","uf":"BA","latitude":"-12.006313","cidade":"Angical","longitude":"-44.700272"},{"tecnologia":"Sem serviço fixo","color":"black","name":"Anguera, BA <br> Sem serviço fixo","uf":"BA","latitude":"-12.146157","cidade":"Anguera","longitude":"-39.246186"},{"tecnologia":"Sem serviço fixo","color":"black","name":"Antas, BA <br> Sem serviço fixo","uf":"BA","latitude":"-10.385621","cidade":"Antas","longitude":"-38.340118"},{"tecnologia":"Sem serviço fixo","color":"black","name":"Antônio Cardoso, BA <br> Sem serviço fixo","uf":"BA","latitude":"-12.433493","cidade":"Antônio Cardoso","longitude":"-39.117555"},{"tecnologia":"Sem serviço fixo","color":"black","name":"Antônio Gonçalves, BA <br> Sem serviço fixo","uf":"BA","latitude":"-10.576686","cidade":"Antônio Gonçalves","longitude":"-40.278489"},{"tecnologia":"Sem serviço fixo","color":"black","name":"Aporá, BA <br> Sem serviço fixo","uf":"BA","latitude":"-11.657708","cidade":"Aporá","longitude":"-38.081418"},{"tecnologia":"Sem serviço fixo","color":"black","name":"Apuarema, BA <br> Sem serviço fixo","uf":"BA","latitude":"-13.854241","cidade":"Apuarema","longitude":"-39.750148"},{"tecnologia":"Sem serviço fixo","color":"black","name":"Araças, BA <br> Sem serviço fixo","uf":"BA","latitude":"-12.220038","cidade":"Araças","longitude":"-38.202658"},{"tecnologia":"Sem serviço fixo","color":"black","name":"Aracatu, BA <br> Sem serviço fixo","uf":"BA","latitude":"-14.427986","cidade":"Aracatu","longitude":"-41.464783"},{"tecnologia":"Sem serviço fixo","color":"black","name":"Araci, BA <br> Sem serviço fixo","uf":"BA","latitude":"-11.325316","cidade":"Araci","longitude":"-38.958385"},{"tecnologia":"Sem serviço fixo","color":"black","name":"Aramari, BA <br> Sem serviço fixo","uf":"BA","latitude":"-12.088399","cidade":"Aramari","longitude":"-38.496937"},{"tecnologia":"Sem serviço fixo","color":"black","name":"Arataca, BA <br> Sem serviço fixo","uf":"BA","latitude":"-15.265099","cidade":"Arataca","longitude":"-39.419017"},{"tecnologia":"Sem serviço fixo","color":"black","name":"Aratuípe, BA <br> Sem serviço fixo","uf":"BA","latitude":"-13.071595","cidade":"Aratuípe","longitude":"-39.003763"},{"tecnologia":"Sem serviço fixo","color":"black","name":"Aurelino Leal, BA <br> Sem serviço fixo","uf":"BA","latitude":"-14.320954","cidade":"Aurelino Leal","longitude":"-39.329035"},{"tecnologia":"Sem serviço fixo","color":"black","name":"Baianópolis, BA <br> Sem serviço fixo","uf":"BA","latitude":"-12.301641","cidade":"Baianópolis","longitude":"-44.538829"},{"tecnologia":"Sem serviço fixo","color":"black","name":"Baixa Grande, BA <br> Sem serviço fixo","uf":"BA","latitude":"-11.951884","cidade":"Baixa Grande","longitude":"-40.16897"},{"tecnologia":"Sem serviço fixo","color":"black","name":"Banzaê, BA <br> Sem serviço fixo","uf":"BA","latitude":"-10.578784","cidade":"Banzaê","longitude":"-38.621243"},{"tecnologia":"Sem serviço fixo","color":"black","name":"Barra da Estiva, BA <br> Sem serviço fixo","uf":"BA","latitude":"-13.623699","cidade":"Barra da Estiva","longitude":"-41.334697"},{"tecnologia":"Sem serviço fixo","color":"black","name":"Barra do Choça, BA <br> Sem serviço fixo","uf":"BA","latitude":"-14.865423","cidade":"Barra do Choça","longitude":"-40.579058"},{"tecnologia":"Sem serviço fixo","color":"black","name":"Barra do Mendes, BA <br> Sem serviço fixo","uf":"BA","latitude":"-11.81","cidade":"Barra do Mendes","longitude":"-42.058999"},{"tecnologia":"Sem serviço fixo","color":"black","name":"Barra do Rocha, BA <br> Sem serviço fixo","uf":"BA","latitude":"-14.199994","cidade":"Barra do Rocha","longitude":"-39.599098"},{"tecnologia":"Sem serviço fixo","color":"black","name":"Barra, BA <br> Sem serviço fixo","uf":"BA","latitude":"-11.0859","cidade":"Barra","longitude":"-43.145913"},{"tecnologia":"Sem serviço fixo","color":"black","name":"Barreiras, BA <br> Sem serviço fixo","uf":"BA","latitude":"-12.143864","cidade":"Barreiras","longitude":"-44.996838"},{"tecnologia":"Sem serviço fixo","color":"black","name":"Barro Alto, BA <br> Sem serviço fixo","uf":"BA","latitude":"-11.760493","cidade":"Barro Alto","longitude":"-41.905441"},{"tecnologia":"Sem serviço fixo","color":"black","name":"Barrocas, BA <br> Sem serviço fixo","uf":"BA","latitude":"-11.527222","cidade":"Barrocas","longitude":"-39.077594"},{"tecnologia":"Sem serviço fixo","color":"black","name":"Belmonte, BA <br> Sem serviço fixo","uf":"BA","latitude":"-15.860789","cidade":"Belmonte","longitude":"-38.87578"},{"tecnologia":"Sem serviço fixo","color":"black","name":"Belo Campo, BA <br> Sem serviço fixo","uf":"BA","latitude":"-15.033362","cidade":"Belo Campo","longitude":"-41.265172"},{"tecnologia":"Sem serviço fixo","color":"black","name":"Biritinga, BA <br> Sem serviço fixo","uf":"BA","latitude":"-11.607156","cidade":"Biritinga","longitude":"-38.805055"},{"tecnologia":"Sem serviço fixo","color":"black","name":"Boa Nova, BA <br> Sem serviço fixo","uf":"BA","latitude":"-14.359754","cidade":"Boa Nova","longitude":"-40.206444"},{"tecnologia":"Sem serviço fixo","color":"black","name":"Boa Vista do Tupim, BA <br> Sem serviço fixo","uf":"BA","latitude":"-12.649774","cidade":"Boa Vista do Tupim","longitude":"-40.606376"},{"tecnologia":"Sem serviço fixo","color":"black","name":"Bom Jesus da Lapa, BA <br> Sem serviço fixo","uf":"BA","latitude":"-13.250571","cidade":"Bom Jesus da Lapa","longitude":"-43.410754"},{"tecnologia":"Sem serviço fixo","color":"black","name":"Bom Jesus da Serra, BA <br> Sem serviço fixo","uf":"BA","latitude":"-14.366312","cidade":"Bom Jesus da Serra","longitude":"-40.512556"},{"tecnologia":"Sem serviço fixo","color":"black","name":"Boninal, BA <br> Sem serviço fixo","uf":"BA","latitude":"-12.706887","cidade":"Boninal","longitude":"-41.828604"},{"tecnologia":"Sem serviço fixo","color":"black","name":"Bonito, BA <br> Sem serviço fixo","uf":"BA","latitude":"-11.966768","cidade":"Bonito","longitude":"-41.264698"},{"tecnologia":"Sem serviço fixo","color":"black","name":"Boquira, BA <br> Sem serviço fixo","uf":"BA","latitude":"-12.820536","cidade":"Boquira","longitude":"-42.732354"},{"tecnologia":"Sem serviço fixo","color":"black","name":"Botuporã, BA <br> Sem serviço fixo","uf":"BA","latitude":"-13.377235","cidade":"Botuporã","longitude":"-42.516301"},{"tecnologia":"Sem serviço fixo","color":"black","name":"Brejões, BA <br> Sem serviço fixo","uf":"BA","latitude":"-13.103948","cidade":"Brejões","longitude":"-39.798797"},{"tecnologia":"Sem serviço fixo","color":"black","name":"Brejolândia, BA <br> Sem serviço fixo","uf":"BA","latitude":"-12.481547","cidade":"Brejolândia","longitude":"-43.967855"},{"tecnologia":"Sem serviço fixo","color":"black","name":"Brotas de Macaúbas, BA <br> Sem serviço fixo","uf":"BA","latitude":"-11.991452","cidade":"Brotas de Macaúbas","longitude":"-42.632609"},{"tecnologia":"Sem serviço fixo","color":"black","name":"Brumado, BA <br> Sem serviço fixo","uf":"BA","latitude":"-14.202127","cidade":"Brumado","longitude":"-41.669592"},{"tecnologia":"Sem serviço fixo","color":"black","name":"Buerarema, BA <br> Sem serviço fixo","uf":"BA","latitude":"-14.959497","cidade":"Buerarema","longitude":"-39.302849"},{"tecnologia":"Sem serviço fixo","color":"black","name":"Buritirama, BA <br> Sem serviço fixo","uf":"BA","latitude":"-10.717055","cidade":"Buritirama","longitude":"-43.630231"},{"tecnologia":"Sem serviço fixo","color":"black","name":"Caatiba, BA <br> Sem serviço fixo","uf":"BA","latitude":"-14.969854","cidade":"Caatiba","longitude":"-40.409156"},{"tecnologia":"Sem serviço fixo","color":"black","name":"Cabaceiras do Paraguaçu, BA <br> Sem serviço fixo","uf":"BA","latitude":"-12.531694","cidade":"Cabaceiras do Paraguaçu","longitude":"-39.190231"},{"tecnologia":"Sem serviço fixo","color":"black","name":"Cachoeira, BA <br> Sem serviço fixo","uf":"BA","latitude":"-12.599443","cidade":"Cachoeira","longitude":"-38.958695"},{"tecnologia":"Sem serviço fixo","color":"black","name":"Caculé, BA <br> Sem serviço fixo","uf":"BA","latitude":"-14.500281","cidade":"Caculé","longitude":"-42.222872"},{"tecnologia":"Sem serviço fixo","color":"black","name":"Caém, BA <br> Sem serviço fixo","uf":"BA","latitude":"-11.067693","cidade":"Caém","longitude":"-40.432039"},{"tecnologia":"Sem serviço fixo","color":"black","name":"Caetanos, BA <br> Sem serviço fixo","uf":"BA","latitude":"-14.334745","cidade":"Caetanos","longitude":"-40.917506"},{"tecnologia":"Sem serviço fixo","color":"black","name":"Caetité, BA <br> Sem serviço fixo","uf":"BA","latitude":"-14.068422","cidade":"Caetité","longitude":"-42.486133"},{"tecnologia":"Sem serviço fixo","color":"black","name":"Cafarnaum, BA <br> Sem serviço fixo","uf":"BA","latitude":"-11.691399","cidade":"Cafarnaum","longitude":"-41.468823"},{"tecnologia":"Sem serviço fixo","color":"black","name":"Cairu, BA <br> Sem serviço fixo","uf":"BA","latitude":"-13.490377","cidade":"Cairu","longitude":"-39.046525"},{"tecnologia":"Sem serviço fixo","color":"black","name":"Caldeirão Grande, BA <br> Sem serviço fixo","uf":"BA","latitude":"-11.020798","cidade":"Caldeirão Grande","longitude":"-40.295577"},{"tecnologia":"Sem serviço fixo","color":"black","name":"Camacan, BA <br> Sem serviço fixo","uf":"BA","latitude":"-15.414157","cidade":"Camacan","longitude":"-39.491937"},{"tecnologia":"Sem serviço fixo","color":"black","name":"Camaçari, BA <br> Sem serviço fixo","uf":"BA","latitude":"-12.699638","cidade":"Camaçari","longitude":"-38.326265"},{"tecnologia":"Sem serviço fixo","color":"black","name":"Camamu, BA <br> Sem serviço fixo","uf":"BA","latitude":"-13.939773","cidade":"Camamu","longitude":"-39.107082"},{"tecnologia":"Sem serviço fixo","color":"black","name":"Campo Alegre de Lourdes, BA <br> Sem serviço fixo","uf":"BA","latitude":"-9.522212","cidade":"Campo Alegre de Lourdes","longitude":"-43.01258"},{"tecnologia":"Sem serviço fixo","color":"black","name":"Campo Formoso, BA <br> Sem serviço fixo","uf":"BA","latitude":"-10.51055","cidade":"Campo Formoso","longitude":"-40.320031"},{"tecnologia":"Sem serviço fixo","color":"black","name":"Canápolis, BA <br> Sem serviço fixo","uf":"BA","latitude":"-13.072454","cidade":"Canápolis","longitude":"-44.200949"},{"tecnologia":"Sem serviço fixo","color":"black","name":"Canarana, BA <br> Sem serviço fixo","uf":"BA","latitude":"-11.685831","cidade":"Canarana","longitude":"-41.767705"},{"tecnologia":"Sem serviço fixo","color":"black","name":"Canavieiras, BA <br> Sem serviço fixo","uf":"BA","latitude":"-15.672205","cidade":"Canavieiras","longitude":"-38.953648"},{"tecnologia":"Sem serviço fixo","color":"black","name":"Candeal, BA <br> Sem serviço fixo","uf":"BA","latitude":"-11.804851","cidade":"Candeal","longitude":"-39.120277"},{"tecnologia":"Sem serviço fixo","color":"black","name":"Candeias, BA <br> Sem serviço fixo","uf":"BA","latitude":"-12.671566","cidade":"Candeias","longitude":"-38.547152"},{"tecnologia":"Sem serviço fixo","color":"black","name":"Candiba, BA <br> Sem serviço fixo","uf":"BA","latitude":"-14.409738","cidade":"Candiba","longitude":"-42.866694"},{"tecnologia":"Sem serviço fixo","color":"black","name":"Cândido Sales, BA <br> Sem serviço fixo","uf":"BA","latitude":"-15.499309","cidade":"Cândido Sales","longitude":"-41.241438"},{"tecnologia":"Sem serviço fixo","color":"black","name":"Cansanção, BA <br> Sem serviço fixo","uf":"BA","latitude":"-10.664713","cidade":"Cansanção","longitude":"-39.494388"},{"tecnologia":"Sem serviço fixo","color":"black","name":"Canudos, BA <br> Sem serviço fixo","uf":"BA","latitude":"-9.900135","cidade":"Canudos","longitude":"-39.147059"},{"tecnologia":"Sem serviço fixo","color":"black","name":"Capela do Alto Alegre, BA <br> Sem serviço fixo","uf":"BA","latitude":"-11.665797","cidade":"Capela do Alto Alegre","longitude":"-39.834912"},{"tecnologia":"Sem serviço fixo","color":"black","name":"Capim Grosso, BA <br> Sem serviço fixo","uf":"BA","latitude":"-11.379659","cidade":"Capim Grosso","longitude":"-40.008951"},{"tecnologia":"Sem serviço fixo","color":"black","name":"Caraíbas, BA <br> Sem serviço fixo","uf":"BA","latitude":"-14.717677","cidade":"Caraíbas","longitude":"-41.260336"},{"tecnologia":"Sem serviço fixo","color":"black","name":"Caravelas, BA <br> Sem serviço fixo","uf":"BA","latitude":"-17.726839","cidade":"Caravelas","longitude":"-39.259679"},{"tecnologia":"Sem serviço fixo","color":"black","name":"Cardeal da Silva, BA <br> Sem serviço fixo","uf":"BA","latitude":"-11.947191","cidade":"Cardeal da Silva","longitude":"-37.946905"},{"tecnologia":"Sem serviço fixo","color":"black","name":"Carinhanha, BA <br> Sem serviço fixo","uf":"BA","latitude":"-14.298524","cidade":"Carinhanha","longitude":"-43.772349"},{"tecnologia":"Sem serviço fixo","color":"black","name":"Casa Nova, BA <br> Sem serviço fixo","uf":"BA","latitude":"-9.164083","cidade":"Casa Nova","longitude":"-40.973977"},{"tecnologia":"Sem serviço fixo","color":"black","name":"Castro Alves, BA <br> Sem serviço fixo","uf":"BA","latitude":"-12.75795","cidade":"Castro Alves","longitude":"-39.424753"},{"tecnologia":"Sem serviço fixo","color":"black","name":"Catolândia, BA <br> Sem serviço fixo","uf":"BA","latitude":"-12.310013","cidade":"Catolândia","longitude":"-44.864808"},{"tecnologia":"Sem serviço fixo","color":"black","name":"Catu, BA <br> Sem serviço fixo","uf":"BA","latitude":"-12.351274","cidade":"Catu","longitude":"-38.379108"},{"tecnologia":"Sem serviço fixo","color":"black","name":"Caturama, BA <br> Sem serviço fixo","uf":"BA","latitude":"-13.323938","cidade":"Caturama","longitude":"-42.290385"},{"tecnologia":"Sem serviço fixo","color":"black","name":"Central, BA <br> Sem serviço fixo","uf":"BA","latitude":"-11.137576","cidade":"Central","longitude":"-42.111625"},{"tecnologia":"Sem serviço fixo","color":"black","name":"Chorrochó, BA <br> Sem serviço fixo","uf":"BA","latitude":"-8.969498","cidade":"Chorrochó","longitude":"-39.097942"},{"tecnologia":"Sem serviço fixo","color":"black","name":"Cícero Dantas, BA <br> Sem serviço fixo","uf":"BA","latitude":"-10.589664","cidade":"Cícero Dantas","longitude":"-38.379377"},{"tecnologia":"Sem serviço fixo","color":"black","name":"Cipó, BA <br> Sem serviço fixo","uf":"BA","latitude":"-11.103172","cidade":"Cipó","longitude":"-38.517942"},{"tecnologia":"Sem serviço fixo","color":"black","name":"Coaraci, BA <br> Sem serviço fixo","uf":"BA","latitude":"-14.636996","cidade":"Coaraci","longitude":"-39.555609"},{"tecnologia":"Sem serviço fixo","color":"black","name":"Cocos, BA <br> Sem serviço fixo","uf":"BA","latitude":"-14.18136","cidade":"Cocos","longitude":"-44.53522"},{"tecnologia":"Sem serviço fixo","color":"black","name":"Conceição da Feira, BA <br> Sem serviço fixo","uf":"BA","latitude":"-12.507835","cidade":"Conceição da Feira","longitude":"-38.997823"},{"tecnologia":"Sem serviço fixo","color":"black","name":"Conceição do Almeida, BA <br> Sem serviço fixo","uf":"BA","latitude":"-12.783579","cidade":"Conceição do Almeida","longitude":"-39.171466"},{"tecnologia":"Sem serviço fixo","color":"black","name":"Conceição do Coité, BA <br> Sem serviço fixo","uf":"BA","latitude":"-11.559953","cidade":"Conceição do Coité","longitude":"-39.280827"},{"tecnologia":"Sem serviço fixo","color":"black","name":"Conceição do Jacuípe, BA <br> Sem serviço fixo","uf":"BA","latitude":"-12.326831","cidade":"Conceição do Jacuípe","longitude":"-38.768433"},{"tecnologia":"Sem serviço fixo","color":"black","name":"Conde, BA <br> Sem serviço fixo","uf":"BA","latitude":"-11.817937","cidade":"Conde","longitude":"-37.613094"},{"tecnologia":"Sem serviço fixo","color":"black","name":"Condeúba, BA <br> Sem serviço fixo","uf":"BA","latitude":"-14.902227","cidade":"Condeúba","longitude":"-41.971829"},{"tecnologia":"Sem serviço fixo","color":"black","name":"Contendas do Sincorá, BA <br> Sem serviço fixo","uf":"BA","latitude":"-13.75369","cidade":"Contendas do Sincorá","longitude":"-41.047953"},{"tecnologia":"Sem serviço fixo","color":"black","name":"Coração de Maria, BA <br> Sem serviço fixo","uf":"BA","latitude":"-12.233332","cidade":"Coração de Maria","longitude":"-38.748654"},{"tecnologia":"Sem serviço fixo","color":"black","name":"Cordeiros, BA <br> Sem serviço fixo","uf":"BA","latitude":"-15.035641","cidade":"Cordeiros","longitude":"-41.930796"},{"tecnologia":"Sem serviço fixo","color":"black","name":"Coribe, BA <br> Sem serviço fixo","uf":"BA","latitude":"-13.823216","cidade":"Coribe","longitude":"-44.458593"},{"tecnologia":"Sem serviço fixo","color":"black","name":"Coronel João sá, BA <br> Sem serviço fixo","uf":"BA","latitude":"-10.2847","cidade":"Coronel João sá","longitude":"-37.919825"},{"tecnologia":"Sem serviço fixo","color":"black","name":"Correntina, BA <br> Sem serviço fixo","uf":"BA","latitude":"-13.347674","cidade":"Correntina","longitude":"-44.633335"},{"tecnologia":"Sem serviço fixo","color":"black","name":"Cotegipe, BA <br> Sem serviço fixo","uf":"BA","latitude":"-12.022761","cidade":"Cotegipe","longitude":"-44.256559"},{"tecnologia":"Sem serviço fixo","color":"black","name":"Cravolândia, BA <br> Sem serviço fixo","uf":"BA","latitude":"-13.353063","cidade":"Cravolândia","longitude":"-39.803083"},{"tecnologia":"Sem serviço fixo","color":"black","name":"Crisópolis, BA <br> Sem serviço fixo","uf":"BA","latitude":"-11.505929","cidade":"Crisópolis","longitude":"-38.15148"},{"tecnologia":"Sem serviço fixo","color":"black","name":"Cristópolis, BA <br> Sem serviço fixo","uf":"BA","latitude":"-12.224899","cidade":"Cristópolis","longitude":"-44.421358"},{"tecnologia":"Sem serviço fixo","color":"black","name":"Cruz Das Almas, BA <br> Sem serviço fixo","uf":"BA","latitude":"-12.667516","cidade":"Cruz Das Almas","longitude":"-39.100787"},{"tecnologia":"Sem serviço fixo","color":"black","name":"Curaçá, BA <br> Sem serviço fixo","uf":"BA","latitude":"-8.984577","cidade":"Curaçá","longitude":"-39.899671"},{"tecnologia":"Sem serviço fixo","color":"black","name":"Dário Meira, BA <br> Sem serviço fixo","uf":"BA","latitude":"-14.4229","cidade":"Dário Meira","longitude":"-39.903129"},{"tecnologia":"Sem serviço fixo","color":"black","name":"Dom Basílio, BA <br> Sem serviço fixo","uf":"BA","latitude":"-13.756499","cidade":"Dom Basílio","longitude":"-41.767663"},{"tecnologia":"Sem serviço fixo","color":"black","name":"Dom Macedo Costa, BA <br> Sem serviço fixo","uf":"BA","latitude":"-12.901582","cidade":"Dom Macedo Costa","longitude":"-39.192259"},{"tecnologia":"Sem serviço fixo","color":"black","name":"Elísio Medrado, BA <br> Sem serviço fixo","uf":"BA","latitude":"-12.941743","cidade":"Elísio Medrado","longitude":"-39.519087"},{"tecnologia":"Sem serviço fixo","color":"black","name":"Encruzilhada, BA <br> Sem serviço fixo","uf":"BA","latitude":"-15.530168","cidade":"Encruzilhada","longitude":"-40.912432"},{"tecnologia":"Sem serviço fixo","color":"black","name":"Entre Rios, BA <br> Sem serviço fixo","uf":"BA","latitude":"-11.939164","cidade":"Entre Rios","longitude":"-38.087125"},{"tecnologia":"Sem serviço fixo","color":"black","name":"Érico Cardoso, BA <br> Sem serviço fixo","uf":"BA","latitude":"-13.421467","cidade":"Érico Cardoso","longitude":"-42.1352"},{"tecnologia":"Sem serviço fixo","color":"black","name":"Esplanada, BA <br> Sem serviço fixo","uf":"BA","latitude":"-11.794215","cidade":"Esplanada","longitude":"-37.943216"},{"tecnologia":"Sem serviço fixo","color":"black","name":"Euclides da Cunha, BA <br> Sem serviço fixo","uf":"BA","latitude":"-10.507754","cidade":"Euclides da Cunha","longitude":"-39.015286"},{"tecnologia":"Sem serviço fixo","color":"black","name":"Eunápolis, BA <br> Sem serviço fixo","uf":"BA","latitude":"-16.371498","cidade":"Eunápolis","longitude":"-39.582122"},{"tecnologia":"Sem serviço fixo","color":"black","name":"Fátima, BA <br> Sem serviço fixo","uf":"BA","latitude":"-10.616013","cidade":"Fátima","longitude":"-38.223891"},{"tecnologia":"Sem serviço fixo","color":"black","name":"Feira da Mata, BA <br> Sem serviço fixo","uf":"BA","latitude":"-14.204405","cidade":"Feira da Mata","longitude":"-44.274424"},{"tecnologia":"Sem serviço fixo","color":"black","name":"Feira de Santana, BA <br> Sem serviço fixo","uf":"BA","latitude":"-12.266429","cidade":"Feira de Santana","longitude":"-38.966293"},{"tecnologia":"Sem serviço fixo","color":"black","name":"Filadélfia, BA <br> Sem serviço fixo","uf":"BA","latitude":"-10.740475","cidade":"Filadélfia","longitude":"-40.14371"},{"tecnologia":"Sem serviço fixo","color":"black","name":"Firmino Alves, BA <br> Sem serviço fixo","uf":"BA","latitude":"-14.982334","cidade":"Firmino Alves","longitude":"-39.926859"},{"tecnologia":"Sem serviço fixo","color":"black","name":"Floresta Azul, BA <br> Sem serviço fixo","uf":"BA","latitude":"-14.862934","cidade":"Floresta Azul","longitude":"-39.657877"},{"tecnologia":"Sem serviço fixo","color":"black","name":"Formosa do Rio Preto, BA <br> Sem serviço fixo","uf":"BA","latitude":"-11.032812","cidade":"Formosa do Rio Preto","longitude":"-45.19298"},{"tecnologia":"Sem serviço fixo","color":"black","name":"Gandu, BA <br> Sem serviço fixo","uf":"BA","latitude":"-13.744101","cidade":"Gandu","longitude":"-39.474651"},{"tecnologia":"Sem serviço fixo","color":"black","name":"Gavião, BA <br> Sem serviço fixo","uf":"BA","latitude":"-11.468796","cidade":"Gavião","longitude":"-39.775751"},{"tecnologia":"Sem serviço fixo","color":"black","name":"Gentio do Ouro, BA <br> Sem serviço fixo","uf":"BA","latitude":"-11.434233","cidade":"Gentio do Ouro","longitude":"-42.507652"},{"tecnologia":"Sem serviço fixo","color":"black","name":"Glória, BA <br> Sem serviço fixo","uf":"BA","latitude":"-9.343822","cidade":"Glória","longitude":"-38.254397"},{"tecnologia":"Sem serviço fixo","color":"black","name":"Gongogi, BA <br> Sem serviço fixo","uf":"BA","latitude":"-14.319481","cidade":"Gongogi","longitude":"-39.46899"},{"tecnologia":"Sem serviço fixo","color":"black","name":"Governador Mangabeira, BA <br> Sem serviço fixo","uf":"BA","latitude":"-12.599415","cidade":"Governador Mangabeira","longitude":"-39.041207"},{"tecnologia":"Sem serviço fixo","color":"black","name":"Guajeru, BA <br> Sem serviço fixo","uf":"BA","latitude":"-14.54668","cidade":"Guajeru","longitude":"-41.938064"},{"tecnologia":"Sem serviço fixo","color":"black","name":"Guanambi, BA <br> Sem serviço fixo","uf":"BA","latitude":"-14.223066","cidade":"Guanambi","longitude":"-42.779943"},{"tecnologia":"Sem serviço fixo","color":"black","name":"Guaratinga, BA <br> Sem serviço fixo","uf":"BA","latitude":"-16.583276","cidade":"Guaratinga","longitude":"-39.784713"},{"tecnologia":"Sem serviço fixo","color":"black","name":"Heliópolis, BA <br> Sem serviço fixo","uf":"BA","latitude":"-10.682539","cidade":"Heliópolis","longitude":"-38.290664"},{"tecnologia":"Sem serviço fixo","color":"black","name":"Iaçu, BA <br> Sem serviço fixo","uf":"BA","latitude":"-12.766637","cidade":"Iaçu","longitude":"-40.205609"},{"tecnologia":"Sem serviço fixo","color":"black","name":"Ibiassucê, BA <br> Sem serviço fixo","uf":"BA","latitude":"-14.271126","cidade":"Ibiassucê","longitude":"-42.257026"},{"tecnologia":"Sem serviço fixo","color":"black","name":"Ibicaraí, BA <br> Sem serviço fixo","uf":"BA","latitude":"-14.857877","cidade":"Ibicaraí","longitude":"-39.591434"},{"tecnologia":"Sem serviço fixo","color":"black","name":"Ibicoara, BA <br> Sem serviço fixo","uf":"BA","latitude":"-13.405918","cidade":"Ibicoara","longitude":"-41.283989"},{"tecnologia":"Sem serviço fixo","color":"black","name":"Ibicuí, BA <br> Sem serviço fixo","uf":"BA","latitude":"-14.84496","cidade":"Ibicuí","longitude":"-39.987915"},{"tecnologia":"Sem serviço fixo","color":"black","name":"Ibipeba, BA <br> Sem serviço fixo","uf":"BA","latitude":"-11.643775","cidade":"Ibipeba","longitude":"-42.019515"},{"tecnologia":"Sem serviço fixo","color":"black","name":"Ibipitanga, BA <br> Sem serviço fixo","uf":"BA","latitude":"-12.880435","cidade":"Ibipitanga","longitude":"-42.485568"},{"tecnologia":"Sem serviço fixo","color":"black","name":"Ibiquera, BA <br> Sem serviço fixo","uf":"BA","latitude":"-12.644354","cidade":"Ibiquera","longitude":"-40.933774"},{"tecnologia":"Sem serviço fixo","color":"black","name":"Ibirapitanga, BA <br> Sem serviço fixo","uf":"BA","latitude":"-14.164898","cidade":"Ibirapitanga","longitude":"-39.378737"},{"tecnologia":"Sem serviço fixo","color":"black","name":"Ibirapuã, BA <br> Sem serviço fixo","uf":"BA","latitude":"-17.683151","cidade":"Ibirapuã","longitude":"-40.112907"},{"tecnologia":"Sem serviço fixo","color":"black","name":"Ibirataia, BA <br> Sem serviço fixo","uf":"BA","latitude":"-14.064316","cidade":"Ibirataia","longitude":"-39.645935"},{"tecnologia":"Sem serviço fixo","color":"black","name":"Ibitiara, BA <br> Sem serviço fixo","uf":"BA","latitude":"-12.650181","cidade":"Ibitiara","longitude":"-42.217946"},{"tecnologia":"Sem serviço fixo","color":"black","name":"Ibititá, BA <br> Sem serviço fixo","uf":"BA","latitude":"-11.541426","cidade":"Ibititá","longitude":"-41.97481"},{"tecnologia":"Sem serviço fixo","color":"black","name":"Ibotirama, BA <br> Sem serviço fixo","uf":"BA","latitude":"-12.177876","cidade":"Ibotirama","longitude":"-43.21669"},{"tecnologia":"Sem serviço fixo","color":"black","name":"Ichu, BA <br> Sem serviço fixo","uf":"BA","latitude":"-11.743065","cidade":"Ichu","longitude":"-39.190523"},{"tecnologia":"Sem serviço fixo","color":"black","name":"Igaporã, BA <br> Sem serviço fixo","uf":"BA","latitude":"-13.774025","cidade":"Igaporã","longitude":"-42.715508"},{"tecnologia":"Sem serviço fixo","color":"black","name":"Igrapiúna, BA <br> Sem serviço fixo","uf":"BA","latitude":"-13.829543","cidade":"Igrapiúna","longitude":"-39.136129"},{"tecnologia":"Sem serviço fixo","color":"black","name":"Iguaí, BA <br> Sem serviço fixo","uf":"BA","latitude":"-14.752754","cidade":"Iguaí","longitude":"-40.089417"},{"tecnologia":"Sem serviço fixo","color":"black","name":"Ilhéus, BA <br> Sem serviço fixo","uf":"BA","latitude":"-14.793045","cidade":"Ilhéus","longitude":"-39.04602"},{"tecnologia":"Sem serviço fixo","color":"black","name":"Inhambupe, BA <br> Sem serviço fixo","uf":"BA","latitude":"-11.780955","cidade":"Inhambupe","longitude":"-38.355048"},{"tecnologia":"Sem serviço fixo","color":"black","name":"Ipecaetá, BA <br> Sem serviço fixo","uf":"BA","latitude":"-12.302846","cidade":"Ipecaetá","longitude":"-39.306921"},{"tecnologia":"Sem serviço fixo","color":"black","name":"Ipiaú, BA <br> Sem serviço fixo","uf":"BA","latitude":"-14.12263","cidade":"Ipiaú","longitude":"-39.735252"},{"tecnologia":"Sem serviço fixo","color":"black","name":"Ipirá, BA <br> Sem serviço fixo","uf":"BA","latitude":"-12.156057","cidade":"Ipirá","longitude":"-39.735941"},{"tecnologia":"Sem serviço fixo","color":"black","name":"Ipupiara, BA <br> Sem serviço fixo","uf":"BA","latitude":"-11.821881","cidade":"Ipupiara","longitude":"-42.617913"},{"tecnologia":"Sem serviço fixo","color":"black","name":"Irajuba, BA <br> Sem serviço fixo","uf":"BA","latitude":"-13.256331","cidade":"Irajuba","longitude":"-40.08482"},{"tecnologia":"Sem serviço fixo","color":"black","name":"Iramaia, BA <br> Sem serviço fixo","uf":"BA","latitude":"-13.290186","cidade":"Iramaia","longitude":"-40.959471"},{"tecnologia":"Sem serviço fixo","color":"black","name":"Iraquara, BA <br> Sem serviço fixo","uf":"BA","latitude":"-12.24288","cidade":"Iraquara","longitude":"-41.615504"},{"tecnologia":"Sem serviço fixo","color":"black","name":"Irará, BA <br> Sem serviço fixo","uf":"BA","latitude":"-12.050449","cidade":"Irará","longitude":"-38.763139"},{"tecnologia":"Sem serviço fixo","color":"black","name":"Irecê, BA <br> Sem serviço fixo","uf":"BA","latitude":"-11.303317","cidade":"Irecê","longitude":"-41.853462"},{"tecnologia":"Sem serviço fixo","color":"black","name":"Itabela, BA <br> Sem serviço fixo","uf":"BA","latitude":"-16.573188","cidade":"Itabela","longitude":"-39.559318"},{"tecnologia":"Sem serviço fixo","color":"black","name":"Itaberaba, BA <br> Sem serviço fixo","uf":"BA","latitude":"-12.524182","cidade":"Itaberaba","longitude":"-40.305897"},{"tecnologia":"Sem serviço fixo","color":"black","name":"Itabuna, BA <br> Sem serviço fixo","uf":"BA","latitude":"-14.787573","cidade":"Itabuna","longitude":"-39.278056"},{"tecnologia":"Sem serviço fixo","color":"black","name":"Itacaré, BA <br> Sem serviço fixo","uf":"BA","latitude":"-14.278422","cidade":"Itacaré","longitude":"-38.99591"},{"tecnologia":"Sem serviço fixo","color":"black","name":"Itaeté, BA <br> Sem serviço fixo","uf":"BA","latitude":"-12.983121","cidade":"Itaeté","longitude":"-40.96774"},{"tecnologia":"Sem serviço fixo","color":"black","name":"Itagi, BA <br> Sem serviço fixo","uf":"BA","latitude":"-14.1615","cidade":"Itagi","longitude":"-40.013112"},{"tecnologia":"Sem serviço fixo","color":"black","name":"Itagibá, BA <br> Sem serviço fixo","uf":"BA","latitude":"-14.278239","cidade":"Itagibá","longitude":"-39.844945"},{"tecnologia":"Sem serviço fixo","color":"black","name":"Itagimirim, BA <br> Sem serviço fixo","uf":"BA","latitude":"-16.081919","cidade":"Itagimirim","longitude":"-39.613317"},{"tecnologia":"Sem serviço fixo","color":"black","name":"Itaguaçu da Bahia, BA <br> Sem serviço fixo","uf":"BA","latitude":"-11.014672","cidade":"Itaguaçu da Bahia","longitude":"-42.399671"},{"tecnologia":"Sem serviço fixo","color":"black","name":"Itaju do Colônia, BA <br> Sem serviço fixo","uf":"BA","latitude":"-15.136598","cidade":"Itaju do Colônia","longitude":"-39.728298"},{"tecnologia":"Sem serviço fixo","color":"black","name":"Itajuípe, BA <br> Sem serviço fixo","uf":"BA","latitude":"-14.678766","cidade":"Itajuípe","longitude":"-39.369823"},{"tecnologia":"Sem serviço fixo","color":"black","name":"Itamaraju, BA <br> Sem serviço fixo","uf":"BA","latitude":"-17.03782","cidade":"Itamaraju","longitude":"-39.538569"},{"tecnologia":"Sem serviço fixo","color":"black","name":"Itamari, BA <br> Sem serviço fixo","uf":"BA","latitude":"-13.778192","cidade":"Itamari","longitude":"-39.682959"},{"tecnologia":"Sem serviço fixo","color":"black","name":"Itambé, BA <br> Sem serviço fixo","uf":"BA","latitude":"-15.242913","cidade":"Itambé","longitude":"-40.629955"},{"tecnologia":"Sem serviço fixo","color":"black","name":"Itanagra, BA <br> Sem serviço fixo","uf":"BA","latitude":"-12.261435","cidade":"Itanagra","longitude":"-38.043595"},{"tecnologia":"Sem serviço fixo","color":"black","name":"Itanhém, BA <br> Sem serviço fixo","uf":"BA","latitude":"-17.164207","cidade":"Itanhém","longitude":"-40.332139"},{"tecnologia":"Sem serviço fixo","color":"black","name":"Itaparica, BA <br> Sem serviço fixo","uf":"BA","latitude":"-12.893205","cidade":"Itaparica","longitude":"-38.67995"},{"tecnologia":"Sem serviço fixo","color":"black","name":"Itapé, BA <br> Sem serviço fixo","uf":"BA","latitude":"-14.887641","cidade":"Itapé","longitude":"-39.423858"},{"tecnologia":"Sem serviço fixo","color":"black","name":"Itapebi, BA <br> Sem serviço fixo","uf":"BA","latitude":"-15.955063","cidade":"Itapebi","longitude":"-39.532863"},{"tecnologia":"Sem serviço fixo","color":"black","name":"Itapetinga, BA <br> Sem serviço fixo","uf":"BA","latitude":"-15.247533","cidade":"Itapetinga","longitude":"-40.248236"},{"tecnologia":"Sem serviço fixo","color":"black","name":"Itapicuru, BA <br> Sem serviço fixo","uf":"BA","latitude":"-11.308836","cidade":"Itapicuru","longitude":"-38.226229"},{"tecnologia":"Sem serviço fixo","color":"black","name":"Itapitanga, BA <br> Sem serviço fixo","uf":"BA","latitude":"-14.413932","cidade":"Itapitanga","longitude":"-39.565654"},{"tecnologia":"Sem serviço fixo","color":"black","name":"Itaquara, BA <br> Sem serviço fixo","uf":"BA","latitude":"-13.44589","cidade":"Itaquara","longitude":"-39.937767"},{"tecnologia":"Sem serviço fixo","color":"black","name":"Itarantim, BA <br> Sem serviço fixo","uf":"BA","latitude":"-15.652819","cidade":"Itarantim","longitude":"-40.06496"},{"tecnologia":"Sem serviço fixo","color":"black","name":"Itatim, BA <br> Sem serviço fixo","uf":"BA","latitude":"-12.709888","cidade":"Itatim","longitude":"-39.695199"},{"tecnologia":"Sem serviço fixo","color":"black","name":"Itiruçu, BA <br> Sem serviço fixo","uf":"BA","latitude":"-13.529043","cidade":"Itiruçu","longitude":"-40.147186"},{"tecnologia":"Sem serviço fixo","color":"black","name":"Itiúba, BA <br> Sem serviço fixo","uf":"BA","latitude":"-10.694761","cidade":"Itiúba","longitude":"-39.844616"},{"tecnologia":"Sem serviço fixo","color":"black","name":"Itororó, BA <br> Sem serviço fixo","uf":"BA","latitude":"-15.109988","cidade":"Itororó","longitude":"-40.068401"},{"tecnologia":"Sem serviço fixo","color":"black","name":"Ituaçu, BA <br> Sem serviço fixo","uf":"BA","latitude":"-13.810651","cidade":"Ituaçu","longitude":"-41.300284"},{"tecnologia":"Sem serviço fixo","color":"black","name":"Ituberá, BA <br> Sem serviço fixo","uf":"BA","latitude":"-13.724936","cidade":"Ituberá","longitude":"-39.148059"},{"tecnologia":"Sem serviço fixo","color":"black","name":"Iuiú, BA <br> Sem serviço fixo","uf":"BA","latitude":"-14.405424","cidade":"Iuiú","longitude":"-43.559547"},{"tecnologia":"Sem serviço fixo","color":"black","name":"Jaborandi, BA <br> Sem serviço fixo","uf":"BA","latitude":"-13.607082","cidade":"Jaborandi","longitude":"-44.425537"},{"tecnologia":"Sem serviço fixo","color":"black","name":"Jacaraci, BA <br> Sem serviço fixo","uf":"BA","latitude":"-14.85409","cidade":"Jacaraci","longitude":"-42.432878"},{"tecnologia":"Sem serviço fixo","color":"black","name":"Jacobina, BA <br> Sem serviço fixo","uf":"BA","latitude":"-11.181217","cidade":"Jacobina","longitude":"-40.511693"},{"tecnologia":"Sem serviço fixo","color":"black","name":"Jaguaquara, BA <br> Sem serviço fixo","uf":"BA","latitude":"-13.524834","cidade":"Jaguaquara","longitude":"-39.964009"},{"tecnologia":"Sem serviço fixo","color":"black","name":"Jaguarari, BA <br> Sem serviço fixo","uf":"BA","latitude":"-10.256859","cidade":"Jaguarari","longitude":"-40.199938"},{"tecnologia":"Sem serviço fixo","color":"black","name":"Jaguaripe, BA <br> Sem serviço fixo","uf":"BA","latitude":"-13.110924","cidade":"Jaguaripe","longitude":"-38.893891"},{"tecnologia":"Sem serviço fixo","color":"black","name":"Jandaíra, BA <br> Sem serviço fixo","uf":"BA","latitude":"-11.561614","cidade":"Jandaíra","longitude":"-37.785274"},{"tecnologia":"Sem serviço fixo","color":"black","name":"Jequié, BA <br> Sem serviço fixo","uf":"BA","latitude":"-13.850888","cidade":"Jequié","longitude":"-40.087704"},{"tecnologia":"Sem serviço fixo","color":"black","name":"Jeremoabo, BA <br> Sem serviço fixo","uf":"BA","latitude":"-10.06848","cidade":"Jeremoabo","longitude":"-38.347097"},{"tecnologia":"Sem serviço fixo","color":"black","name":"Jiquiriçá, BA <br> Sem serviço fixo","uf":"BA","latitude":"-13.262101","cidade":"Jiquiriçá","longitude":"-39.57365"},{"tecnologia":"Sem serviço fixo","color":"black","name":"Jitaúna, BA <br> Sem serviço fixo","uf":"BA","latitude":"-14.013085","cidade":"Jitaúna","longitude":"-39.896892"},{"tecnologia":"Sem serviço fixo","color":"black","name":"João Dourado, BA <br> Sem serviço fixo","uf":"BA","latitude":"-11.348642","cidade":"João Dourado","longitude":"-41.654799"},{"tecnologia":"Sem serviço fixo","color":"black","name":"Juazeiro, BA <br> Sem serviço fixo","uf":"BA","latitude":"-9.416217","cidade":"Juazeiro","longitude":"-40.503251"},{"tecnologia":"Sem serviço fixo","color":"black","name":"Jucuruçu, BA <br> Sem serviço fixo","uf":"BA","latitude":"-16.848752","cidade":"Jucuruçu","longitude":"-40.164074"},{"tecnologia":"Sem serviço fixo","color":"black","name":"Jussara, BA <br> Sem serviço fixo","uf":"BA","latitude":"-11.043084","cidade":"Jussara","longitude":"-41.970235"},{"tecnologia":"Sem serviço fixo","color":"black","name":"Jussari, BA <br> Sem serviço fixo","uf":"BA","latitude":"-15.19201","cidade":"Jussari","longitude":"-39.490962"},{"tecnologia":"Sem serviço fixo","color":"black","name":"Jussiape, BA <br> Sem serviço fixo","uf":"BA","latitude":"-13.515514","cidade":"Jussiape","longitude":"-41.588209"},{"tecnologia":"Sem serviço fixo","color":"black","name":"Lafaiete Coutinho, BA <br> Sem serviço fixo","uf":"BA","latitude":"-13.6541","cidade":"Lafaiete Coutinho","longitude":"-40.21189"},{"tecnologia":"Sem serviço fixo","color":"black","name":"Lagoa Real, BA <br> Sem serviço fixo","uf":"BA","latitude":"-14.033443","cidade":"Lagoa Real","longitude":"-42.132764"},{"tecnologia":"Sem serviço fixo","color":"black","name":"Laje, BA <br> Sem serviço fixo","uf":"BA","latitude":"-13.167327","cidade":"Laje","longitude":"-39.421264"},{"tecnologia":"Sem serviço fixo","color":"black","name":"Lajedão, BA <br> Sem serviço fixo","uf":"BA","latitude":"-17.605641","cidade":"Lajedão","longitude":"-40.338307"},{"tecnologia":"Sem serviço fixo","color":"black","name":"Lajedinho, BA <br> Sem serviço fixo","uf":"BA","latitude":"-12.352889","cidade":"Lajedinho","longitude":"-40.904752"},{"tecnologia":"Sem serviço fixo","color":"black","name":"Lajedo do Tabocal, BA <br> Sem serviço fixo","uf":"BA","latitude":"-13.466286","cidade":"Lajedo do Tabocal","longitude":"-40.220429"},{"tecnologia":"Sem serviço fixo","color":"black","name":"Lamarão, BA <br> Sem serviço fixo","uf":"BA","latitude":"-11.773013","cidade":"Lamarão","longitude":"-38.887009"},{"tecnologia":"Sem serviço fixo","color":"black","name":"Lapão, BA <br> Sem serviço fixo","uf":"BA","latitude":"-11.385096","cidade":"Lapão","longitude":"-41.828615"},{"tecnologia":"Sem serviço fixo","color":"black","name":"Lauro de Freitas, BA <br> Sem serviço fixo","uf":"BA","latitude":"-12.8978","cidade":"Lauro de Freitas","longitude":"-38.321008"},{"tecnologia":"Sem serviço fixo","color":"black","name":"Lençóis, BA <br> Sem serviço fixo","uf":"BA","latitude":"-12.561604","cidade":"Lençóis","longitude":"-41.392825"},{"tecnologia":"Sem serviço fixo","color":"black","name":"Licínio de Almeida, BA <br> Sem serviço fixo","uf":"BA","latitude":"-14.684215","cidade":"Licínio de Almeida","longitude":"-42.509527"},{"tecnologia":"Sem serviço fixo","color":"black","name":"Livramento de Nossa Senhora, BA <br> Sem serviço fixo","uf":"BA","latitude":"-13.636868","cidade":"Livramento de Nossa Senhora","longitude":"-41.843187"},{"tecnologia":"Sem serviço fixo","color":"black","name":"Macajuba, BA <br> Sem serviço fixo","uf":"BA","latitude":"-12.132592","cidade":"Macajuba","longitude":"-40.357058"},{"tecnologia":"Sem serviço fixo","color":"black","name":"Macarani, BA <br> Sem serviço fixo","uf":"BA","latitude":"-15.564563","cidade":"Macarani","longitude":"-40.420888"},{"tecnologia":"Sem serviço fixo","color":"black","name":"Macaúbas, BA <br> Sem serviço fixo","uf":"BA","latitude":"-13.018601","cidade":"Macaúbas","longitude":"-42.694515"},{"tecnologia":"Sem serviço fixo","color":"black","name":"Macururé, BA <br> Sem serviço fixo","uf":"BA","latitude":"-9.162258","cidade":"Macururé","longitude":"-39.051784"},{"tecnologia":"Sem serviço fixo","color":"black","name":"Madre de Deus, BA <br> Sem serviço fixo","uf":"BA","latitude":"-12.744621","cidade":"Madre de Deus","longitude":"-38.615316"},{"tecnologia":"Sem serviço fixo","color":"black","name":"Maetinga, BA <br> Sem serviço fixo","uf":"BA","latitude":"-14.662335","cidade":"Maetinga","longitude":"-41.49146"},{"tecnologia":"Sem serviço fixo","color":"black","name":"Maiquinique, BA <br> Sem serviço fixo","uf":"BA","latitude":"-15.623985","cidade":"Maiquinique","longitude":"-40.258722"},{"tecnologia":"Sem serviço fixo","color":"black","name":"Mairi, BA <br> Sem serviço fixo","uf":"BA","latitude":"-11.710704","cidade":"Mairi","longitude":"-40.143732"},{"tecnologia":"Sem serviço fixo","color":"black","name":"Malhada de Pedras, BA <br> Sem serviço fixo","uf":"BA","latitude":"-14.384673","cidade":"Malhada de Pedras","longitude":"-41.88422"},{"tecnologia":"Sem serviço fixo","color":"black","name":"Malhada, BA <br> Sem serviço fixo","uf":"BA","latitude":"-14.337134","cidade":"Malhada","longitude":"-43.768634"},{"tecnologia":"Sem serviço fixo","color":"black","name":"Manoel Vitorino, BA <br> Sem serviço fixo","uf":"BA","latitude":"-14.147617","cidade":"Manoel Vitorino","longitude":"-40.239895"},{"tecnologia":"Sem serviço fixo","color":"black","name":"Mansidão, BA <br> Sem serviço fixo","uf":"BA","latitude":"-10.722707","cidade":"Mansidão","longitude":"-44.042798"},{"tecnologia":"Sem serviço fixo","color":"black","name":"Maracás, BA <br> Sem serviço fixo","uf":"BA","latitude":"-13.435468","cidade":"Maracás","longitude":"-40.432333"},{"tecnologia":"Sem serviço fixo","color":"black","name":"Maragogipe, BA <br> Sem serviço fixo","uf":"BA","latitude":"-12.77602","cidade":"Maragogipe","longitude":"-38.917519"},{"tecnologia":"Sem serviço fixo","color":"black","name":"Marcionílio Souza, BA <br> Sem serviço fixo","uf":"BA","latitude":"-13.006437","cidade":"Marcionílio Souza","longitude":"-40.529457"},{"tecnologia":"Sem serviço fixo","color":"black","name":"Mascote, BA <br> Sem serviço fixo","uf":"BA","latitude":"-15.554159","cidade":"Mascote","longitude":"-39.301602"},{"tecnologia":"Sem serviço fixo","color":"black","name":"Mata de São João, BA <br> Sem serviço fixo","uf":"BA","latitude":"-12.530685","cidade":"Mata de São João","longitude":"-38.300898"},{"tecnologia":"Sem serviço fixo","color":"black","name":"Matina, BA <br> Sem serviço fixo","uf":"BA","latitude":"-13.910917","cidade":"Matina","longitude":"-42.843914"},{"tecnologia":"Sem serviço fixo","color":"black","name":"Medeiros Neto, BA <br> Sem serviço fixo","uf":"BA","latitude":"-17.370676","cidade":"Medeiros Neto","longitude":"-40.223776"},{"tecnologia":"Sem serviço fixo","color":"black","name":"Miguel Calmon, BA <br> Sem serviço fixo","uf":"BA","latitude":"-11.429891","cidade":"Miguel Calmon","longitude":"-40.603084"},{"tecnologia":"Sem serviço fixo","color":"black","name":"Milagres, BA <br> Sem serviço fixo","uf":"BA","latitude":"-12.864635","cidade":"Milagres","longitude":"-39.861092"},{"tecnologia":"Sem serviço fixo","color":"black","name":"Mirangaba, BA <br> Sem serviço fixo","uf":"BA","latitude":"-10.960983","cidade":"Mirangaba","longitude":"-40.573996"},{"tecnologia":"Sem serviço fixo","color":"black","name":"Mirante, BA <br> Sem serviço fixo","uf":"BA","latitude":"-14.238469","cidade":"Mirante","longitude":"-40.771799"},{"tecnologia":"Sem serviço fixo","color":"black","name":"Monte Santo, BA <br> Sem serviço fixo","uf":"BA","latitude":"-10.437413","cidade":"Monte Santo","longitude":"-39.332077"},{"tecnologia":"Sem serviço fixo","color":"black","name":"Morpará, BA <br> Sem serviço fixo","uf":"BA","latitude":"-11.556892","cidade":"Morpará","longitude":"-43.276566"},{"tecnologia":"Sem serviço fixo","color":"black","name":"Morro do Chapéu, BA <br> Sem serviço fixo","uf":"BA","latitude":"-11.548804","cidade":"Morro do Chapéu","longitude":"-41.156461"},{"tecnologia":"Sem serviço fixo","color":"black","name":"Mortugaba, BA <br> Sem serviço fixo","uf":"BA","latitude":"-15.022454","cidade":"Mortugaba","longitude":"-42.372663"},{"tecnologia":"Sem serviço fixo","color":"black","name":"Mucugê, BA <br> Sem serviço fixo","uf":"BA","latitude":"-13.0053","cidade":"Mucugê","longitude":"-41.370271"},{"tecnologia":"Sem serviço fixo","color":"black","name":"Mucuri, BA <br> Sem serviço fixo","uf":"BA","latitude":"-18.075392","cidade":"Mucuri","longitude":"-39.556467"},{"tecnologia":"Sem serviço fixo","color":"black","name":"Mulungu do Morro, BA <br> Sem serviço fixo","uf":"BA","latitude":"-11.964776","cidade":"Mulungu do Morro","longitude":"-41.637352"},{"tecnologia":"Sem serviço fixo","color":"black","name":"Mundo Novo, BA <br> Sem serviço fixo","uf":"BA","latitude":"-11.85408","cidade":"Mundo Novo","longitude":"-40.47139"},{"tecnologia":"Sem serviço fixo","color":"black","name":"Muniz Ferreira, BA <br> Sem serviço fixo","uf":"BA","latitude":"-13.009227","cidade":"Muniz Ferreira","longitude":"-39.109247"},{"tecnologia":"Sem serviço fixo","color":"black","name":"Muquém de São Francisco, BA <br> Sem serviço fixo","uf":"BA","latitude":"-12.063376","cidade":"Muquém de São Francisco","longitude":"-43.543808"},{"tecnologia":"Sem serviço fixo","color":"black","name":"Muritiba, BA <br> Sem serviço fixo","uf":"BA","latitude":"-12.632901","cidade":"Muritiba","longitude":"-38.992052"},{"tecnologia":"Sem serviço fixo","color":"black","name":"Mutuípe, BA <br> Sem serviço fixo","uf":"BA","latitude":"-13.228381","cidade":"Mutuípe","longitude":"-39.504367"},{"tecnologia":"Sem serviço fixo","color":"black","name":"Nazaré, BA <br> Sem serviço fixo","uf":"BA","latitude":"-13.023491","cidade":"Nazaré","longitude":"-39.010835"},{"tecnologia":"Sem serviço fixo","color":"black","name":"Nilo Peçanha, BA <br> Sem serviço fixo","uf":"BA","latitude":"-13.603992","cidade":"Nilo Peçanha","longitude":"-39.109111"},{"tecnologia":"Sem serviço fixo","color":"black","name":"Nordestina, BA <br> Sem serviço fixo","uf":"BA","latitude":"-10.819169","cidade":"Nordestina","longitude":"-39.429705"},{"tecnologia":"Sem serviço fixo","color":"black","name":"Nova Canaã, BA <br> Sem serviço fixo","uf":"BA","latitude":"-14.791242","cidade":"Nova Canaã","longitude":"-40.1458"},{"tecnologia":"Sem serviço fixo","color":"black","name":"Nova Fátima, BA <br> Sem serviço fixo","uf":"BA","latitude":"-11.603116","cidade":"Nova Fátima","longitude":"-39.630215"},{"tecnologia":"Sem serviço fixo","color":"black","name":"Nova Ibiá, BA <br> Sem serviço fixo","uf":"BA","latitude":"-13.811995","cidade":"Nova Ibiá","longitude":"-39.618174"},{"tecnologia":"Sem serviço fixo","color":"black","name":"Nova Itarana, BA <br> Sem serviço fixo","uf":"BA","latitude":"-13.024055","cidade":"Nova Itarana","longitude":"-40.065267"},{"tecnologia":"Sem serviço fixo","color":"black","name":"Nova Redenção, BA <br> Sem serviço fixo","uf":"BA","latitude":"-12.815001","cidade":"Nova Redenção","longitude":"-41.074785"},{"tecnologia":"Sem serviço fixo","color":"black","name":"Nova Soure, BA <br> Sem serviço fixo","uf":"BA","latitude":"-11.232948","cidade":"Nova Soure","longitude":"-38.487103"},{"tecnologia":"Sem serviço fixo","color":"black","name":"Nova Viçosa, BA <br> Sem serviço fixo","uf":"BA","latitude":"-17.892648","cidade":"Nova Viçosa","longitude":"-39.374331"},{"tecnologia":"Sem serviço fixo","color":"black","name":"Novo Horizonte, BA <br> Sem serviço fixo","uf":"BA","latitude":"-12.808318","cidade":"Novo Horizonte","longitude":"-42.168172"},{"tecnologia":"Sem serviço fixo","color":"black","name":"Novo Triunfo, BA <br> Sem serviço fixo","uf":"BA","latitude":"-10.318235","cidade":"Novo Triunfo","longitude":"-38.401374"},{"tecnologia":"Sem serviço fixo","color":"black","name":"Olindina, BA <br> Sem serviço fixo","uf":"BA","latitude":"-11.349693","cidade":"Olindina","longitude":"-38.337863"},{"tecnologia":"Sem serviço fixo","color":"black","name":"Oliveira Dos Brejinhos, BA <br> Sem serviço fixo","uf":"BA","latitude":"-12.313183","cidade":"Oliveira Dos Brejinhos","longitude":"-42.896872"},{"tecnologia":"Sem serviço fixo","color":"black","name":"Ouriçangas, BA <br> Sem serviço fixo","uf":"BA","latitude":"-12.017497","cidade":"Ouriçangas","longitude":"-38.616624"},{"tecnologia":"Sem serviço fixo","color":"black","name":"Ourolândia, BA <br> Sem serviço fixo","uf":"BA","latitude":"-10.957848","cidade":"Ourolândia","longitude":"-41.075576"},{"tecnologia":"Sem serviço fixo","color":"black","name":"Palmas de Monte Alto, BA <br> Sem serviço fixo","uf":"BA","latitude":"-14.267562","cidade":"Palmas de Monte Alto","longitude":"-43.16086"},{"tecnologia":"Sem serviço fixo","color":"black","name":"Palmeiras, BA <br> Sem serviço fixo","uf":"BA","latitude":"-12.505865","cidade":"Palmeiras","longitude":"-41.580886"},{"tecnologia":"Sem serviço fixo","color":"black","name":"Paramirim, BA <br> Sem serviço fixo","uf":"BA","latitude":"-13.438849","cidade":"Paramirim","longitude":"-42.239502"},{"tecnologia":"Sem serviço fixo","color":"black","name":"Paratinga, BA <br> Sem serviço fixo","uf":"BA","latitude":"-12.686974","cidade":"Paratinga","longitude":"-43.179794"},{"tecnologia":"Sem serviço fixo","color":"black","name":"Paripiranga, BA <br> Sem serviço fixo","uf":"BA","latitude":"-10.685885","cidade":"Paripiranga","longitude":"-37.862561"},{"tecnologia":"Sem serviço fixo","color":"black","name":"Pau Brasil, BA <br> Sem serviço fixo","uf":"BA","latitude":"-15.457226","cidade":"Pau Brasil","longitude":"-39.645794"},{"tecnologia":"Sem serviço fixo","color":"black","name":"Paulo Afonso, BA <br> Sem serviço fixo","uf":"BA","latitude":"-9.398296","cidade":"Paulo Afonso","longitude":"-38.22156"},{"tecnologia":"Sem serviço fixo","color":"black","name":"pé de Serra, BA <br> Sem serviço fixo","uf":"BA","latitude":"-11.831289","cidade":"pé de Serra","longitude":"-39.611037"},{"tecnologia":"Sem serviço fixo","color":"black","name":"Pedrão, BA <br> Sem serviço fixo","uf":"BA","latitude":"-12.14914","cidade":"Pedrão","longitude":"-38.648715"},{"tecnologia":"Sem serviço fixo","color":"black","name":"Pedro Alexandre, BA <br> Sem serviço fixo","uf":"BA","latitude":"-10.012005","cidade":"Pedro Alexandre","longitude":"-37.893178"},{"tecnologia":"Sem serviço fixo","color":"black","name":"Piatã, BA <br> Sem serviço fixo","uf":"BA","latitude":"-13.146549","cidade":"Piatã","longitude":"-41.770177"},{"tecnologia":"Sem serviço fixo","color":"black","name":"Pilão Arcado, BA <br> Sem serviço fixo","uf":"BA","latitude":"-10.005079","cidade":"Pilão Arcado","longitude":"-42.493607"},{"tecnologia":"Sem serviço fixo","color":"black","name":"Pindaí, BA <br> Sem serviço fixo","uf":"BA","latitude":"-14.492128","cidade":"Pindaí","longitude":"-42.685984"},{"tecnologia":"Sem serviço fixo","color":"black","name":"Pindobaçu, BA <br> Sem serviço fixo","uf":"BA","latitude":"-10.743338","cidade":"Pindobaçu","longitude":"-40.367472"},{"tecnologia":"Sem serviço fixo","color":"black","name":"Pintadas, BA <br> Sem serviço fixo","uf":"BA","latitude":"-11.811712","cidade":"Pintadas","longitude":"-39.900859"},{"tecnologia":"Sem serviço fixo","color":"black","name":"Piraí do Norte, BA <br> Sem serviço fixo","uf":"BA","latitude":"-13.758962","cidade":"Piraí do Norte","longitude":"-39.383592"},{"tecnologia":"Sem serviço fixo","color":"black","name":"Piripá, BA <br> Sem serviço fixo","uf":"BA","latitude":"-14.944379","cidade":"Piripá","longitude":"-41.716841"},{"tecnologia":"Sem serviço fixo","color":"black","name":"Piritiba, BA <br> Sem serviço fixo","uf":"BA","latitude":"-11.730008","cidade":"Piritiba","longitude":"-40.558739"},{"tecnologia":"Sem serviço fixo","color":"black","name":"Planaltino, BA <br> Sem serviço fixo","uf":"BA","latitude":"-13.261789","cidade":"Planaltino","longitude":"-40.369519"},{"tecnologia":"Sem serviço fixo","color":"black","name":"Planalto, BA <br> Sem serviço fixo","uf":"BA","latitude":"-14.66537","cidade":"Planalto","longitude":"-40.471843"},{"tecnologia":"Sem serviço fixo","color":"black","name":"Poções, BA <br> Sem serviço fixo","uf":"BA","latitude":"-14.523391","cidade":"Poções","longitude":"-40.363354"},{"tecnologia":"Sem serviço fixo","color":"black","name":"Pojuca, BA <br> Sem serviço fixo","uf":"BA","latitude":"-12.430336","cidade":"Pojuca","longitude":"-38.337436"},{"tecnologia":"Sem serviço fixo","color":"black","name":"Ponto Novo, BA <br> Sem serviço fixo","uf":"BA","latitude":"-10.8653","cidade":"Ponto Novo","longitude":"-40.131144"},{"tecnologia":"Sem serviço fixo","color":"black","name":"Porto Seguro, BA <br> Sem serviço fixo","uf":"BA","latitude":"-16.443473","cidade":"Porto Seguro","longitude":"-39.064251"},{"tecnologia":"Sem serviço fixo","color":"black","name":"Potiraguá, BA <br> Sem serviço fixo","uf":"BA","latitude":"-15.59429","cidade":"Potiraguá","longitude":"-39.863846"},{"tecnologia":"Sem serviço fixo","color":"black","name":"Prado, BA <br> Sem serviço fixo","uf":"BA","latitude":"-17.336357","cidade":"Prado","longitude":"-39.222721"},{"tecnologia":"Sem serviço fixo","color":"black","name":"Presidente Dutra, BA <br> Sem serviço fixo","uf":"BA","latitude":"-11.292345","cidade":"Presidente Dutra","longitude":"-41.984341"},{"tecnologia":"Sem serviço fixo","color":"black","name":"Presidente Jânio Quadros, BA <br> Sem serviço fixo","uf":"BA","latitude":"-14.688485","cidade":"Presidente Jânio Quadros","longitude":"-41.679792"},{"tecnologia":"Sem serviço fixo","color":"black","name":"Presidente Tancredo Neves, BA <br> Sem serviço fixo","uf":"BA","latitude":"-13.447064","cidade":"Presidente Tancredo Neves","longitude":"-39.420267"},{"tecnologia":"Sem serviço fixo","color":"black","name":"Queimadas, BA <br> Sem serviço fixo","uf":"BA","latitude":"-10.973561","cidade":"Queimadas","longitude":"-39.629347"},{"tecnologia":"Sem serviço fixo","color":"black","name":"Quijingue, BA <br> Sem serviço fixo","uf":"BA","latitude":"-10.750519","cidade":"Quijingue","longitude":"-39.213694"},{"tecnologia":"Sem serviço fixo","color":"black","name":"Quixabeira, BA <br> Sem serviço fixo","uf":"BA","latitude":"-11.403061","cidade":"Quixabeira","longitude":"-40.120045"},{"tecnologia":"Sem serviço fixo","color":"black","name":"Rafael Jambeiro, BA <br> Sem serviço fixo","uf":"BA","latitude":"-12.405257","cidade":"Rafael Jambeiro","longitude":"-39.500658"},{"tecnologia":"Sem serviço fixo","color":"black","name":"Remanso, BA <br> Sem serviço fixo","uf":"BA","latitude":"-9.61944","cidade":"Remanso","longitude":"-42.084839"},{"tecnologia":"Sem serviço fixo","color":"black","name":"Retirolândia, BA <br> Sem serviço fixo","uf":"BA","latitude":"-11.483198","cidade":"Retirolândia","longitude":"-39.423358"},{"tecnologia":"Sem serviço fixo","color":"black","name":"Riachão Das Neves, BA <br> Sem serviço fixo","uf":"BA","latitude":"-11.750755","cidade":"Riachão Das Neves","longitude":"-44.914259"},{"tecnologia":"Sem serviço fixo","color":"black","name":"Riachão do Jacuípe, BA <br> Sem serviço fixo","uf":"BA","latitude":"-11.806681","cidade":"Riachão do Jacuípe","longitude":"-39.381812"},{"tecnologia":"Sem serviço fixo","color":"black","name":"Riacho de Santana, BA <br> Sem serviço fixo","uf":"BA","latitude":"-13.605941","cidade":"Riacho de Santana","longitude":"-42.939675"},{"tecnologia":"Sem serviço fixo","color":"black","name":"Ribeira do Amparo, BA <br> Sem serviço fixo","uf":"BA","latitude":"-11.042071","cidade":"Ribeira do Amparo","longitude":"-38.424211"},{"tecnologia":"Sem serviço fixo","color":"black","name":"Ribeira do Pombal, BA <br> Sem serviço fixo","uf":"BA","latitude":"-10.837299","cidade":"Ribeira do Pombal","longitude":"-38.538152"},{"tecnologia":"Sem serviço fixo","color":"black","name":"Ribeirão do Largo, BA <br> Sem serviço fixo","uf":"BA","latitude":"-15.450775","cidade":"Ribeirão do Largo","longitude":"-40.744137"},{"tecnologia":"Sem serviço fixo","color":"black","name":"Rio de Contas, BA <br> Sem serviço fixo","uf":"BA","latitude":"-13.585218","cidade":"Rio de Contas","longitude":"-41.804764"},{"tecnologia":"Sem serviço fixo","color":"black","name":"Rio do Antônio, BA <br> Sem serviço fixo","uf":"BA","latitude":"-14.407144","cidade":"Rio do Antônio","longitude":"-42.072103"},{"tecnologia":"Sem serviço fixo","color":"black","name":"Rio do Pires, BA <br> Sem serviço fixo","uf":"BA","latitude":"-13.11853","cidade":"Rio do Pires","longitude":"-42.290166"},{"tecnologia":"Sem serviço fixo","color":"black","name":"Rio Real, BA <br> Sem serviço fixo","uf":"BA","latitude":"-11.48137","cidade":"Rio Real","longitude":"-37.933243"},{"tecnologia":"Sem serviço fixo","color":"black","name":"Rodelas, BA <br> Sem serviço fixo","uf":"BA","latitude":"-8.850214","cidade":"Rodelas","longitude":"-38.77999"},{"tecnologia":"Sem serviço fixo","color":"black","name":"Ruy Barbosa, BA <br> Sem serviço fixo","uf":"BA","latitude":"-12.281612","cidade":"Ruy Barbosa","longitude":"-40.493101"},{"tecnologia":"Sem serviço fixo","color":"black","name":"Salinas da Margarida, BA <br> Sem serviço fixo","uf":"BA","latitude":"-12.873014","cidade":"Salinas da Margarida","longitude":"-38.756164"},{"tecnologia":"Sem serviço fixo","color":"black","name":"Salvador, BA <br> Sem serviço fixo","uf":"BA","latitude":"-12.97178","cidade":"Salvador","longitude":"-38.501068"},{"tecnologia":"Sem serviço fixo","color":"black","name":"Santa Bárbara, BA <br> Sem serviço fixo","uf":"BA","latitude":"-11.95149","cidade":"Santa Bárbara","longitude":"-38.968085"},{"tecnologia":"Sem serviço fixo","color":"black","name":"Santa Brígida, BA <br> Sem serviço fixo","uf":"BA","latitude":"-9.732273","cidade":"Santa Brígida","longitude":"-38.120935"},{"tecnologia":"Sem serviço fixo","color":"black","name":"Santa Cruz Cabrália, BA <br> Sem serviço fixo","uf":"BA","latitude":"-16.282529","cidade":"Santa Cruz Cabrália","longitude":"-39.029495"},{"tecnologia":"Sem serviço fixo","color":"black","name":"Santa Cruz da Vitória, BA <br> Sem serviço fixo","uf":"BA","latitude":"-14.963975","cidade":"Santa Cruz da Vitória","longitude":"-39.811503"},{"tecnologia":"Sem serviço fixo","color":"black","name":"Santa Inês, BA <br> Sem serviço fixo","uf":"BA","latitude":"-13.2793","cidade":"Santa Inês","longitude":"-39.813979"},{"tecnologia":"Sem serviço fixo","color":"black","name":"Santa Maria da Vitória, BA <br> Sem serviço fixo","uf":"BA","latitude":"-13.385867","cidade":"Santa Maria da Vitória","longitude":"-44.201057"},{"tecnologia":"Sem serviço fixo","color":"black","name":"Santa Rita de Cássia, BA <br> Sem serviço fixo","uf":"BA","latitude":"-11.006253","cidade":"Santa Rita de Cássia","longitude":"-44.525496"},{"tecnologia":"Sem serviço fixo","color":"black","name":"Santa Teresinha, BA <br> Sem serviço fixo","uf":"BA","latitude":"-12.76913","cidade":"Santa Teresinha","longitude":"-39.520111"},{"tecnologia":"Sem serviço fixo","color":"black","name":"Santaluz, BA <br> Sem serviço fixo","uf":"BA","latitude":"-11.250826","cidade":"Santaluz","longitude":"-39.375005"},{"tecnologia":"Sem serviço fixo","color":"black","name":"Santanópolis, BA <br> Sem serviço fixo","uf":"BA","latitude":"-12.031109","cidade":"Santanópolis","longitude":"-38.869372"},{"tecnologia":"Sem serviço fixo","color":"black","name":"Santo Amaro, BA <br> Sem serviço fixo","uf":"BA","latitude":"-12.547206","cidade":"Santo Amaro","longitude":"-38.713679"},{"tecnologia":"Sem serviço fixo","color":"black","name":"Santo Antônio de Jesus, BA <br> Sem serviço fixo","uf":"BA","latitude":"-12.961387","cidade":"Santo Antônio de Jesus","longitude":"-39.258403"},{"tecnologia":"Sem serviço fixo","color":"black","name":"Santo Estêvão, BA <br> Sem serviço fixo","uf":"BA","latitude":"-12.427981","cidade":"Santo Estêvão","longitude":"-39.250541"},{"tecnologia":"Sem serviço fixo","color":"black","name":"São Desidério, BA <br> Sem serviço fixo","uf":"BA","latitude":"-12.357196","cidade":"São Desidério","longitude":"-44.976881"},{"tecnologia":"Sem serviço fixo","color":"black","name":"São Domingos, BA <br> Sem serviço fixo","uf":"BA","latitude":"-11.464927","cidade":"São Domingos","longitude":"-39.526792"},{"tecnologia":"Sem serviço fixo","color":"black","name":"São Felipe, BA <br> Sem serviço fixo","uf":"BA","latitude":"-12.839439","cidade":"São Felipe","longitude":"-39.08932"},{"tecnologia":"Sem serviço fixo","color":"black","name":"São Félix do Coribe, BA <br> Sem serviço fixo","uf":"BA","latitude":"-13.401883","cidade":"São Félix do Coribe","longitude":"-44.183708"},{"tecnologia":"Sem serviço fixo","color":"black","name":"São Félix, BA <br> Sem serviço fixo","uf":"BA","latitude":"-12.610433","cidade":"São Félix","longitude":"-38.97271"},{"tecnologia":"Sem serviço fixo","color":"black","name":"São Francisco do Conde, BA <br> Sem serviço fixo","uf":"BA","latitude":"-12.618345","cidade":"São Francisco do Conde","longitude":"-38.678601"},{"tecnologia":"Sem serviço fixo","color":"black","name":"São Gabriel, BA <br> Sem serviço fixo","uf":"BA","latitude":"-11.217453","cidade":"São Gabriel","longitude":"-41.884267"},{"tecnologia":"Sem serviço fixo","color":"black","name":"São Gonçalo Dos Campos, BA <br> Sem serviço fixo","uf":"BA","latitude":"-12.433096","cidade":"São Gonçalo Dos Campos","longitude":"-38.966294"},{"tecnologia":"Sem serviço fixo","color":"black","name":"São José da Vitória, BA <br> Sem serviço fixo","uf":"BA","latitude":"-15.078666","cidade":"São José da Vitória","longitude":"-39.343685"},{"tecnologia":"Sem serviço fixo","color":"black","name":"São José do Jacuípe, BA <br> Sem serviço fixo","uf":"BA","latitude":"-11.41368","cidade":"São José do Jacuípe","longitude":"-39.866934"},{"tecnologia":"Sem serviço fixo","color":"black","name":"São Miguel Das Matas, BA <br> Sem serviço fixo","uf":"BA","latitude":"-13.043387","cidade":"São Miguel Das Matas","longitude":"-39.457844"},{"tecnologia":"Sem serviço fixo","color":"black","name":"São Sebastião do Passé, BA <br> Sem serviço fixo","uf":"BA","latitude":"-12.512264","cidade":"São Sebastião do Passé","longitude":"-38.490513"},{"tecnologia":"Sem serviço fixo","color":"black","name":"Sapeaçu, BA <br> Sem serviço fixo","uf":"BA","latitude":"-12.720764","cidade":"Sapeaçu","longitude":"-39.182426"},{"tecnologia":"Sem serviço fixo","color":"black","name":"Sátiro Dias, BA <br> Sem serviço fixo","uf":"BA","latitude":"-11.592928","cidade":"Sátiro Dias","longitude":"-38.593822"},{"tecnologia":"Sem serviço fixo","color":"black","name":"Saubara, BA <br> Sem serviço fixo","uf":"BA","latitude":"-12.738664","cidade":"Saubara","longitude":"-38.762473"},{"tecnologia":"Sem serviço fixo","color":"black","name":"Saúde, BA <br> Sem serviço fixo","uf":"BA","latitude":"-10.94279","cidade":"Saúde","longitude":"-40.415458"},{"tecnologia":"Sem serviço fixo","color":"black","name":"Seabra, BA <br> Sem serviço fixo","uf":"BA","latitude":"-12.416905","cidade":"Seabra","longitude":"-41.772159"},{"tecnologia":"Sem serviço fixo","color":"black","name":"Sebastião Laranjeiras, BA <br> Sem serviço fixo","uf":"BA","latitude":"-14.571002","cidade":"Sebastião Laranjeiras","longitude":"-42.943438"},{"tecnologia":"Sem serviço fixo","color":"black","name":"Senhor do Bonfim, BA <br> Sem serviço fixo","uf":"BA","latitude":"-10.459354","cidade":"Senhor do Bonfim","longitude":"-40.186532"},{"tecnologia":"Sem serviço fixo","color":"black","name":"Sento sé, BA <br> Sem serviço fixo","uf":"BA","latitude":"-9.741378","cidade":"Sento sé","longitude":"-41.878563"},{"tecnologia":"Sem serviço fixo","color":"black","name":"Serra do Ramalho, BA <br> Sem serviço fixo","uf":"BA","latitude":"-13.565889","cidade":"Serra do Ramalho","longitude":"-43.592907"},{"tecnologia":"Sem serviço fixo","color":"black","name":"Serra Dourada, BA <br> Sem serviço fixo","uf":"BA","latitude":"-12.759004","cidade":"Serra Dourada","longitude":"-43.950434"},{"tecnologia":"Sem serviço fixo","color":"black","name":"Serra Preta, BA <br> Sem serviço fixo","uf":"BA","latitude":"-12.156039","cidade":"Serra Preta","longitude":"-39.33049"},