[{"longitude":"-36.792608","color":"orange","name":"Campo Grande, ERRO CADASTRO API AL <br> ERRO na consulta API","tecnologia":"ERRO na consulta API","cidade":"Campo Grande","uf":"ERRO CADASTRO API AL","latitude":"-9.955423"},{"longitude":"-39.013656","color":"orange","name":"Maraú, ERRO CADASTRO API BA <br> ERRO na consulta API","tecnologia":"ERRO na consulta API","cidade":"Maraú","uf":"ERRO CADASTRO API BA","latitude":"-14.103549"},{"longitude":"-39.328678","color":"orange","name":"Santa Luzia, ERRO CADASTRO API BA <br> ERRO na consulta API","tecnologia":"ERRO na consulta API","cidade":"Santa Luzia","uf":"ERRO CADASTRO API BA","latitude":"-15.434188"},{"longitude":"-44.05064","color":"orange","name":"Santana, ERRO CADASTRO API BA <br> ERRO na consulta API","tecnologia":"ERRO na consulta API","cidade":"Santana","uf":"ERRO CADASTRO API BA","latitude":"-12.979217"},{"longitude":"-38.615295","color":"orange","name":"Vera Cruz, ERRO CADASTRO API BA <br> ERRO na consulta API","tecnologia":"ERRO na consulta API","cidade":"Vera Cruz","uf":"ERRO CADASTRO API BA","latitude":"-12.956845"},{"longitude":"-38.241178","color":"orange","name":"Cascavel, ERRO CADASTRO API CE <br> ERRO na consulta API","tecnologia":"ERRO na consulta API","cidade":"Cascavel","uf":"ERRO CADASTRO API CE","latitude":"-4.129666"},{"longitude":"-51.399333","color":"orange","name":"Lagoa Santa, ERRO CADASTRO API GO <br> ERRO na consulta API","tecnologia":"ERRO na consulta API","cidade":"Lagoa Santa","uf":"ERRO CADASTRO API GO","latitude":"-19.185113"},{"longitude":"-49.425931","color":"orange","name":"Santa Isabel, ERRO CADASTRO API GO <br> ERRO na consulta API","tecnologia":"ERRO na consulta API","cidade":"Santa Isabel","uf":"ERRO CADASTRO API GO","latitude":"-15.295849"},{"longitude":"-45.690026","color":"orange","name":"Santa Luzia, ERRO CADASTRO API MA <br> ERRO na consulta API","tecnologia":"ERRO na consulta API","cidade":"Santa Luzia","uf":"ERRO CADASTRO API MA","latitude":"-4.068726"},{"longitude":"-46.224053","color":"orange","name":"Itapeva, ERRO CADASTRO API MG <br> ERRO na consulta API","tecnologia":"ERRO na consulta API","cidade":"Itapeva","uf":"ERRO CADASTRO API MG","latitude":"-22.766488"},{"longitude":"-42.607877","color":"orange","name":"Mesquita, ERRO CADASTRO API MG <br> ERRO na consulta API","tecnologia":"ERRO na consulta API","cidade":"Mesquita","uf":"ERRO CADASTRO API MG","latitude":"-19.224022"},{"longitude":"-43.189532","color":"orange","name":"Presidente Bernardes, ERRO CADASTRO API MG <br> ERRO na consulta API","tecnologia":"ERRO na consulta API","cidade":"Presidente Bernardes","uf":"ERRO CADASTRO API MG","latitude":"-20.76557"},{"longitude":"-46.372772","color":"orange","name":"Toledo, ERRO CADASTRO API MG <br> ERRO na consulta API","tecnologia":"ERRO na consulta API","cidade":"Toledo","uf":"ERRO CADASTRO API MG","latitude":"-22.742133"},{"longitude":"-58.125892","color":"orange","name":"Rio Branco, ERRO CADASTRO API MT <br> ERRO na consulta API","tecnologia":"ERRO na consulta API","cidade":"Rio Branco","uf":"ERRO CADASTRO API MT","latitude":"-15.248331"},{"longitude":"-37.062838","color":"orange","name":"Amparo, ERRO CADASTRO API PB <br> ERRO na consulta API","tecnologia":"ERRO na consulta API","cidade":"Amparo","uf":"ERRO CADASTRO API PB","latitude":"-7.555022"},{"longitude":"-38.080259","color":"orange","name":"Aparecida, ERRO CADASTRO API PB <br> ERRO na consulta API","tecnologia":"ERRO na consulta API","cidade":"Aparecida","uf":"ERRO CADASTRO API PB","latitude":"-6.784657"},{"longitude":"-37.618548","color":"orange","name":"Paulista, ERRO CADASTRO API PB <br> ERRO na consulta API","tecnologia":"ERRO na consulta API","cidade":"Paulista","uf":"ERRO CADASTRO API PB","latitude":"-6.591381"},{"longitude":"-36.917792","color":"orange","name":"Santa Luzia, ERRO CADASTRO API PB <br> ERRO na consulta API","tecnologia":"ERRO na consulta API","cidade":"Santa Luzia","uf":"ERRO CADASTRO API PB","latitude":"-6.860922"},{"longitude":"-36.240182","color":"orange","name":"Cachoeirinha, ERRO CADASTRO API PE <br> ERRO na consulta API","tecnologia":"ERRO na consulta API","cidade":"Cachoeirinha","uf":"ERRO CADASTRO API PE","latitude":"-8.486685"},{"longitude":"-39.579547","color":"orange","name":"Parnamirim, ERRO CADASTRO API PE <br> ERRO na consulta API","tecnologia":"ERRO na consulta API","cidade":"Parnamirim","uf":"ERRO CADASTRO API PE","latitude":"-8.087292"},{"longitude":"-40.26472","color":"orange","name":"Trindade, ERRO CADASTRO API PE <br> ERRO na consulta API","tecnologia":"ERRO na consulta API","cidade":"Trindade","uf":"ERRO CADASTRO API PE","latitude":"-7.759"},{"longitude":"-44.141874","color":"orange","name":"Rio Claro, ERRO CADASTRO API RJ <br> ERRO na consulta API","tecnologia":"ERRO na consulta API","cidade":"Rio Claro","uf":"ERRO CADASTRO API RJ","latitude":"-22.720001"},{"longitude":"-35.691409","color":"orange","name":"Santa Maria, ERRO CADASTRO API RN <br> ERRO na consulta API","tecnologia":"ERRO na consulta API","cidade":"Santa Maria","uf":"ERRO CADASTRO API RN","latitude":"-5.838022"},{"longitude":"-35.427979","color":"orange","name":"Vera Cruz, ERRO CADASTRO API RN <br> ERRO na consulta API","tecnologia":"ERRO na consulta API","cidade":"Vera Cruz","uf":"ERRO CADASTRO API RN","latitude":"-6.043989"},{"longitude":"-52.923085","color":"orange","name":"Sarandi, ERRO CADASTRO API RS <br> ERRO na consulta API","tecnologia":"ERRO na consulta API","cidade":"Sarandi","uf":"ERRO CADASTRO API RS","latitude":"-27.942"},{"longitude":"-49.952503","color":"orange","name":"Praia Grande, ERRO CADASTRO API SC <br> ERRO na consulta API","tecnologia":"ERRO na consulta API","cidade":"Praia Grande","uf":"ERRO CADASTRO API SC","latitude":"-29.191846"},{"longitude":"-49.820735","color":"orange","name":"Vera Cruz, ERRO CADASTRO API SP <br> ERRO na consulta API","tecnologia":"ERRO na consulta API","cidade":"Vera Cruz","uf":"ERRO CADASTRO API SP","latitude":"-22.218308"},{"longitude":"-49.124926","color":"orange","name":"Alvorada, ERRO CADASTRO API TO <br> ERRO na consulta API","tecnologia":"ERRO na consulta API","cidade":"Alvorada","uf":"ERRO CADASTRO API TO","latitude":"-12.478465"},{"longitude":"-47.923399","color":"orange","name":"Cachoeirinha, ERRO CADASTRO API TO <br> ERRO na consulta API","tecnologia":"ERRO na consulta API","cidade":"Cachoeirinha","uf":"ERRO CADASTRO API TO","latitude":"-6.115596"},{"longitude":"-48.356482","color":"orange","name":"Lajeado, ERRO CADASTRO API TO <br> ERRO na consulta API","tecnologia":"ERRO na consulta API","cidade":"Lajeado","uf":"ERRO CADASTRO API TO","latitude":"-9.749956"}]
